     2              OBSERVATION DATA    G                   RINEX VERSION / TYPE
RINEX MATLAB Toolbox by Constell, Inc.  15-Feb-2000 09:34:23PGM / RUN BY / DATE 
Unknown                                                     MARKER NAME         
Unknown                                                     MARKER NUMBER       
Simulated Data                                              OBSERVER / AGENCY   
Simulated GPS Receiver                                      REC # / TYPE / VERS 
Simulated Antenna                                           ANT # / TYPE        
                                                            APPROX POSITION XYZ 
                                                            ANTENNA: DELTA H/E/N
     1     1     7   G 3   G 6   G10   G17   G21   G22   G23WAVELENGTH FACT L1/2
     1     1     1   G26                                    WAVELENGTH FACT L1/2
     1     1                                                WAVELENGTH FACT L1/2
     3    C1    L1    D1                                    # / TYPES OF OBSERV 
    20                                                      INTERVAL            
  2000     4    15     0     0    0.000000      GPS         TIME OF FIRST OBS   
  2000     4    15     1     0    0.000000      GPS         TIME OF LAST OBS    
    13                                                      LEAP SECONDS        
     8                                                      # OF SATELLITES     
   G 3    83    83    83                                    PRN / # OF OBS      
   G 6   181   181   181                                    PRN / # OF OBS      
   G10    61    61    61                                    PRN / # OF OBS      
   G17   181   181   181                                    PRN / # OF OBS      
   G21   133   133   133                                    PRN / # OF OBS      
   G22   125   125   125                                    PRN / # OF OBS      
   G23   181   181   181                                    PRN / # OF OBS      
   G26   181   181   181                                    PRN / # OF OBS      
                                                            END OF HEADER       
 00 04 15 00 00  0.0000000  0  6G 6G10G17G22G23G26                              
  20647816.926   999833699.386         302.353                                  
  24003180.113   584204568.589         607.992                                  
  20669175.392   -80579791.088        -240.991                                  
  24365244.406   645434941.494          57.948                                  
  22142921.617   139946497.709        -425.244                                  
  21116475.612  -341877145.033        -134.731                                  
 00 04 15 00 00 20.0000000  0  6G 6G10G17G22G23G26                              
  20653891.090   999865623.308         314.358                                  
  24015332.591   584268430.871         616.858                                  
  20664360.927   -80605091.409        -230.560                                  
  24366418.133   645441109.979          68.887                                  
  22134437.077   139901910.122        -414.103                                  
  21113804.278  -341891183.062        -122.829                                  
 00 04 15 00 00 40.0000000  0  6G 6G10G17G22G23G26                              
  20660205.547   999898802.367         323.309                                  
  24027670.055   584333263.808         622.912                                  
  20659750.444   -80629319.867        -224.418                                  
  24367823.033   645448492.096          77.536                                  
  22126163.179   139858434.552        -406.866                                  
  21111374.290  -341903952.578        -113.868                                  
 00 04 15 00 01  0.0000000  0  6G 6G10G17G22G23G26                              
  20666687.095   999932864.448         327.384                                  
  24040131.436   584398748.273         625.235                                  
  20655274.907   -80652839.155        -220.577                                  
  24369392.840   645456743.139          82.105                                  
  22118040.372   139815746.217        -402.815                                  
  21109125.478  -341915767.175        -108.840                                  
 00 04 15 00 01 20.0000000  0  6G 6G10G17G22G23G26                              
  20673253.210   999967369.193         331.192                                  
  24052636.114   584464460.121         627.352                                  
  20650869.014   -80675991.120        -217.008                                  
  24371057.997   645465493.624          86.448                                  
  22109991.282   139773451.209        -399.874                                  
  21106977.522  -341927056.925        -103.767                                  
 00 04 15 00 01 40.0000000  0  6G 6G10G17G22G23G26                              
  20679907.540  1000002336.342         328.310                                  
  24065193.739   584530447.607         623.233                                  
  20646532.560   -80698780.422        -221.727                                  
  24372813.746   645474719.890          83.036                                  
  22102017.514   139731549.253        -403.406                                  
  21104936.302  -341937781.942        -105.289                                  
 00 04 15 00 02  0.0000000  0  6G 6G10G17G22G23G26                              
  20686497.704  1000036968.847         344.431                                  
  24077652.444   584595917.057         636.437                                  
  20642113.131   -80722004.745        -206.926                                  
  24374506.735   645483615.824          99.797                                  
  22093963.310   139689224.925        -388.131                                  
  21102845.981  -341948766.307         -89.206                                  
 00 04 15 00 02 20.0000000  0  6G 6G10G17G22G23G26                              
  20693415.095  1000073318.961         347.314                                  
  24090392.672   584662866.104         637.636                                  
  20637992.067   -80743660.625        -204.924                                  
  24376520.972   645494201.984         103.033                                  
  22086215.749   139648512.577        -385.773                                  
  21101087.321  -341958009.370         -86.392                                  
 00 04 15 00 02 40.0000000  0  6G 6G10G17G22G23G26                              
  20700390.661  1000109975.267         363.109                                  
  24103145.445   584729881.870         650.518                                  
  20633904.630   -80765140.223        -190.773                                  
  24378585.871   645505052.343         117.418                                  
  22078503.432   139607983.323        -372.270                                  
  21099394.572  -341966903.634         -70.068                                  
 00 04 15 00 03  0.0000000  0  6G 6G10G17G22G23G26                              
  20707678.084  1000148268.925         367.622                                  
  24116166.280   584798307.664         653.142                                  
  20630100.194   -80785131.373        -187.918                                  
  24380954.723   645517500.789         121.430                                  
  22071070.639   139568926.654        -368.854                                  
  21098015.254  -341974152.852         -66.413                                  
 00 04 15 00 03 20.0000000  0  6G 6G10G17G22G23G26                              
  20715051.255  1000187016.098         379.188                                  
  24129232.286   584866967.017         663.069                                  
  20626354.397   -80804814.134        -176.385                                  
  24383405.747   645530380.594         133.055                                  
  22063703.493   139530209.253        -357.065                                  
  21096727.066  -341980922.330         -53.211                                  
 00 04 15 00 03 40.0000000  0  6G 6G10G17G22G23G26                              
  20722661.851  1000227011.087         367.883                                  
  24142498.865   584936685.822         649.824                                  
  20622823.182   -80823373.656        -190.037                                  
  24386098.717   645544530.864         122.543                                  
  22056563.896   139492692.285        -370.295                                  
  21095687.489  -341986385.279         -63.878                                  
 00 04 15 00 04  0.0000000  0  6G 6G10G17G22G23G26                              
  20730043.571  1000265801.616         362.038                                  
  24155497.252   585004991.115         641.698                                  
  20619045.534   -80843222.535        -196.491                                  
  24388558.787   645557457.258         116.392                                  
  22049168.128   139453827.992        -377.461                                  
  21094434.970  -341992965.968         -69.264                                  
 00 04 15 00 04 20.0000000  0  6G 6G10G17G22G23G26                              
  20737302.567  1000303948.982         376.926                                  
  24168337.863   585072465.654         655.241                                  
  20615129.302   -80863803.779        -181.836                                  
  24390900.021   645569761.292         130.956                                  
  22041637.128   139414252.662        -362.349                                  
  21093082.880  -342000072.074         -52.967                                  
 00 04 15 00 04 40.0000000  0  6G 6G10G17G22G23G26                              
  20744865.403  1000343690.584         376.342                                  
  24181437.316   585141303.703         650.919                                  
  20611502.324   -80882864.944        -184.112                                  
  24393545.967   645583667.183         130.338                                  
  22034402.399   139376232.678        -364.351                                  
  21092046.463  -342005517.727         -53.816                                  
 00 04 15 00 05  0.0000000  0  6G 6G10G17G22G23G26                              
  20752407.521  1000383323.646         384.829                                  
  24194461.130   585209744.596         657.377                                  
  20607822.356   -80902200.820        -177.161                                  
  24396163.856   645597423.371         137.694                                  
  22027129.466   139338014.440        -356.449                                  
  21091003.639  -342010998.089         -44.834                                  
 00 04 15 00 05 20.0000000  0  6G 6G10G17G22G23G26                              
  20760116.399  1000423834.701         380.769                                  
  24207608.979   585278836.149         652.385                                  
  20604283.400   -80920799.748        -182.067                                  
  24398948.809   645612058.417         134.945                                  
  22020007.345   139300587.569        -360.602                                  
  21090134.284  -342015565.003         -47.857                                  
 00 04 15 00 05 40.0000000  0  6G 6G10G17G22G23G26                              
  20767760.147  1000464003.682         384.854                                  
  24220644.733   585347338.761         653.336                                  
  20600653.492   -80939874.999        -179.761                                  
  24401663.896   645626327.766         137.984                                  
  22012801.999   139262725.785        -358.889                                  
  21089208.641  -342020429.610         -43.248                                  
 00 04 15 00 06  0.0000000  0  6G 6G10G17G22G23G26                              
  20775476.949  1000504554.702         374.254                                  
  24233706.106   585415973.113         640.689                                  
  20597070.995   -80958699.430        -191.127                                  
  24404441.948   645640926.581         127.532                                  
  22005647.367   139225127.061        -369.398                                  
  21088363.512  -342024872.683         -53.808                                  
 00 04 15 00 06 20.0000000  0  6G 6G10G17G22G23G26                              
  20782983.257  1000544000.070         363.228                                  
  24246518.583   585483305.332         627.661                                  
  20593261.187   -80978719.532        -203.066                                  
  24407009.935   645654419.104         116.591                                  
  21998271.277   139186366.131        -380.543                                  
  21087320.943  -342030350.222         -63.648                                  
 00 04 15 00 06 40.0000000  0  6G 6G10G17G22G23G26                              
  20790281.994  1000582355.375         372.971                                  
  24259079.221   585549309.977         635.016                                  
  20589218.513   -80999964.660        -194.440                                  
  24409362.878   645666781.911         126.315                                  
  21990665.166   139146395.274        -372.713                                  
  21086075.036  -342036895.014         -53.343                                  
 00 04 15 00 07  0.0000000  0  6G 6G10G17G22G23G26                              
  20797765.804  1000621682.253         375.035                                  
  24271785.153   585616079.833         635.433                                  
  20585336.041   -81020366.777        -193.756                                  
  24411904.156   645680138.665         127.949                                  
  21983227.553   139107312.314        -371.160                                  
  21085024.446  -342042417.831         -51.753                                  
 00 04 15 00 07 20.0000000  0  6G 6G10G17G22G23G26                              
  20805293.778  1000661240.952         371.963                                  
  24284489.666   585682840.165         629.512                                  
  20581477.530   -81040642.883        -198.056                                  
  24414496.964   645693763.995         124.660                                  
  21975821.128   139068390.773        -375.557                                  
  21084028.405  -342047649.615         -53.851                                  
 00 04 15 00 07 40.0000000  0  6G 6G10G17G22G23G26                              
  20812751.527  1000700432.904         368.030                                  
  24297083.840   585749023.179         623.924                                  
  20577527.686   -81061401.923        -202.720                                  
  24417021.151   645707030.076         121.237                                  
  21968325.396   139028999.686        -380.316                                  
  21082975.310  -342053185.581         -56.900                                  
 00 04 15 00 08  0.0000000  0  6G 6G10G17G22G23G26                              
  20820131.351  1000739213.039         376.471                                  
  24309559.095   585814579.576         630.291                                  
  20573472.723   -81082707.091        -195.429                                  
  24419472.546   645719908.972         130.318                                  
  21960731.142   138989094.902        -372.026                                  
  21081860.598  -342059043.944         -47.207                                  
 00 04 15 00 08 20.0000000  0  6G 6G10G17G22G23G26                              
  20827682.352  1000778893.300         381.004                                  
  24322171.376   585880856.752         633.109                                  
  20569581.154   -81103157.734        -191.316                                  
  24422104.764   645733741.100         135.508                                  
  21953299.819   138950043.283        -368.857                                  
  21080944.007  -342063859.430         -41.984                                  
 00 04 15 00 08 40.0000000  0  6G 6G10G17G22G23G26                              
  20835320.105  1000819030.060         386.096                                  
  24334840.785   585947433.715         636.649                                  
  20565764.609   -81123215.789        -187.729                                  
  24424825.022   645748038.776         140.172                                  
  21945951.812   138911428.657        -363.846                                  
  21080138.989  -342068090.972         -35.852                                  
 00 04 15 00 09  0.0000000  0  6G 6G10G17G22G23G26                              
  20843064.641  1000859725.315         391.494                                  
  24347578.300   586014370.129         639.844                                  
  20562031.870   -81142830.655        -182.649                                  
  24427641.004   645762834.838         145.231                                  
  21938699.120   138873316.977        -358.188                                  
  21079453.237  -342071693.003         -29.430                                  
 00 04 15 00 09 20.0000000  0  6G 6G10G17G22G23G26                              
  20850929.205  1000901053.726         398.978                                  
  24360386.693   586081676.556         645.673                                  
  20558391.118   -81161963.023        -176.259                                  
  24430566.155   645778209.266         152.234                                  
  21931548.815   138835740.739        -351.288                                  
  21078898.715  -342074607.002         -20.949                                  
 00 04 15 00 09 40.0000000  0  6G 6G10G17G22G23G26                              
  20858941.728  1000943161.850         405.702                                  
  24373295.066   586149507.121         648.983                                  
  20554877.905   -81180424.185        -171.023                                  
  24433637.319   645794345.740         159.006                                  
  21924531.728   138798866.680        -346.194                                  
  21078503.444  -342076683.780         -14.059                                  
 00 04 15 00 10  0.0000000  0  6G 6G10G17G22G23G26                              
  20867072.348  1000985886.789         392.835                                  
  24386285.792   586217774.300         634.984                                  
  20551465.074   -81198357.916        -184.936                                  
  24436828.974   645811119.236         145.578                                  
  21917617.247   138762534.328        -359.818                                  
  21078243.034  -342078053.869         -26.369                                  
 00 04 15 00 10 20.0000000  0  6G 6G10G17G22G23G26                              
  20874954.447  1001027307.947         399.773                                  
  24398988.912   586284529.543         639.385                                  
  20547782.961   -81217707.947        -179.493                                  
  24439767.305   645826559.211         151.789                                  
  21910431.368   138724770.584        -354.348                                  
  21077743.375  -342080677.416         -19.212                                  
 00 04 15 00 10 40.0000000  0  6G 6G10G17G22G23G26                              
  20882963.969  1001069398.845         409.140                                  
  24411773.250   586351711.498         646.878                                  
  20544216.447   -81236448.978        -169.874                                  
  24442833.204   645842670.380         161.399                                  
  21903354.400   138687580.075        -345.060                                  
  21077389.121  -342082539.514          -8.122                                  
 00 04 15 00 11  0.0000000  0  6G 6G10G17G22G23G26                              
  20891169.391  1001112517.840         417.002                                  
  24424713.008   586419709.493         652.939                                  
  20540824.223   -81254276.690        -163.021                                  
  24446087.345   645859768.854         169.655                                  
  21896458.431   138651344.506        -337.861                                  
  21077243.492  -342083307.121          -0.805                                  
 00 04 15 00 11 20.0000000  0  6G 6G10G17G22G23G26                              
  20899530.168  1001156454.035         397.543                                  
  24437772.116   586488333.895         631.319                                  
  20537568.477   -81271384.263        -183.943                                  
  24449492.528   645877667.090         149.528                                  
  21889704.122   138615850.958        -359.298                                  
  21077267.024  -342083178.541         -19.672                                  
 00 04 15 00 11 40.0000000  0  6G 6G10G17G22G23G26                              
  20907506.589  1001198368.047         395.862                                  
  24450396.653   586554675.151         626.967                                  
  20533888.436   -81290723.936        -187.996                                  
  24452503.811   645893490.584         147.052                                  
  21882534.009   138578171.715        -362.360                                  
  21076903.411  -342085093.020         -21.673                                  
 00 04 15 00 12  0.0000000  0  6G 6G10G17G22G23G26                              
  20915437.445  1001240045.223         391.427                                  
  24462933.193   586620553.032         620.748                                  
  20530141.843   -81310413.922        -192.566                                  
  24455469.437   645909073.815         143.959                                  
  21875300.244   138540158.232        -366.963                                  
  21076505.446  -342087184.982         -24.617                                  
 00 04 15 00 12 20.0000000  0  6G 6G10G17G22G23G26                              
  20923289.632  1001281309.420         394.777                                  
  24475346.931   586685788.802         621.291                                  
  20526297.557   -81330613.618        -190.531                                  
  24458358.587   645924256.773         146.843                                  
  21867969.774   138501636.205        -364.849                                  
  21076042.214  -342089618.315         -20.993                                  
 00 04 15 00 12 40.0000000  0  6G 6G10G17G22G23G26                              
  20931201.660  1001322886.050         392.238                                  
  24487772.917   586751086.690         616.842                                  
  20522494.844   -81350597.125        -193.300                                  
  24461308.433   645939756.032         144.949                                  
  21860689.885   138463382.824        -367.130                                  
  21075650.482  -342091674.804         -21.880                                  
 00 04 15 00 13  0.0000000  0  6G 6G10G17G22G23G26                              
  20939075.562  1001364263.480         396.141                                  
  24500120.048   586815970.197         617.710                                  
  20518638.337   -81370861.408        -190.939                                  
  24464216.879   645955040.708         147.608                                  
  21853361.318   138424871.083        -364.796                                  
  21075235.510  -342093856.264         -18.484                                  
 00 04 15 00 13 20.0000000  0  6G 6G10G17G22G23G26                              
  20947010.600  1001405963.055         413.803                                  
  24512482.439   586880934.843         634.630                                  
  20514819.863   -81390928.997        -174.385                                  
  24467179.195   645970608.153         165.651                                  
  21846073.070   138386570.376        -347.149                                  
  21074893.968  -342095650.969           0.671                                  
 00 04 15 00 13 40.0000000  0  6G 6G10G17G22G23G26                              
  20955305.905  1001449556.262         424.694                                  
  24525168.215   586947595.772         642.082                                  
  20511348.899   -81409169.118        -165.071                                  
  24470515.089   645988138.454         176.635                                  
  21839136.212   138350115.917        -337.503                                  
  21074936.161  -342095430.075          11.871                                  
 00 04 15 00 14  0.0000000  0  6G 6G10G17G22G23G26                              
  20963803.896  1001494210.430         423.982                                  
  24538015.078   587015108.065         641.480                                  
  20508062.342   -81426440.256        -164.730                                  
  24474060.289   646006766.569         176.635                                  
  21832392.665   138314680.489        -337.274                                  
  21075200.956  -342094039.391          13.185                                  
 00 04 15 00 14 20.0000000  0  6G 6G10G17G22G23G26                              
  20972312.766  1001538925.033         416.799                                  
  24550834.166   587082470.374         631.277                                  
  20504765.955   -81443761.722        -173.642                                  
  24477611.631   646025431.477         168.351                                  
  21825648.062   138279237.912        -346.728                                  
  21075494.653  -342092495.149           6.444                                  
 00 04 15 00 14 40.0000000  0  6G 6G10G17G22G23G26                              
  20980669.465  1001582837.368         418.191                                  
  24563463.763   587148837.692         631.191                                  
  20501298.193   -81461984.244        -174.177                                  
  24481007.561   646043276.776         169.718                                  
  21818736.115   138242915.461        -346.116                                  
  21075652.770  -342091663.619           8.521                                  
 00 04 15 00 15  0.0000000  0  6G 6G10G17G22G23G26                              
  20989047.038  1001626862.933         416.904                                  
  24576076.744   587215118.400         627.869                                  
  20497834.520   -81480187.771        -176.162                                  
  24484428.259   646061252.973         169.024                                  
  21811835.197   138206650.104        -347.357                                  
  21075850.919  -342090624.314           8.094                                  
 00 04 15 00 15 20.0000000  0  6G 6G10G17G22G23G26                              
  20997404.958  1001670784.216         413.820                                  
  24588625.060   587281059.988         622.396                                  
  20494331.336   -81498596.685        -179.940                                  
  24487823.463   646079092.426         165.132                                  
  21804900.723   138170210.282        -351.752                                  
  21076036.308  -342089645.362           5.401                                  
 00 04 15 00 15 40.0000000  0  6G 6G10G17G22G23G26                              
  21005697.148  1001714358.794         412.145                                  
  24601068.388   587346448.290         617.985                                  
  20490747.660   -81517429.552        -182.908                                  
  24491149.209   646096569.180         163.570                                  
  21797891.603   138133379.918        -353.604                                  
  21076169.662  -342088946.503           3.591                                  
 00 04 15 00 16  0.0000000  0  7G 6G10G17G21G22G23G26                           
  21013956.802  1001757762.385         417.627                                  
  24613429.299   587411404.463         621.793                                  
  20487103.141   -81536580.865        -178.077                                  
  25007838.242  -536209353.822        -541.854                                  
  24494436.837   646113846.569         169.511                                  
  21790830.161   138096270.628        -348.577                                  
  21076280.517  -342088363.142          10.948                                  
 00 04 15 00 16 20.0000000  0  7G 6G10G17G21G22G23G26                           
  21022337.867  1001801806.639         434.478                                  
  24625869.156   587476776.004         635.725                                  
  20483562.437   -81555187.773        -162.635                                  
  24997005.156  -536266279.946        -527.514                                  
  24497849.774   646131778.995         185.617                                  
  21783872.077   138059706.604        -333.459                                  
  21076535.748  -342087022.856          28.569                                  
 00 04 15 00 16 40.0000000  0  7G 6G10G17G21G22G23G26                           
  21031040.808  1001847539.114         416.774                                  
  24638588.287   587543614.651         616.401                                  
  20480325.500   -81572197.543        -179.988                                  
  24986458.126  -536321703.533        -546.746                                  
  24501580.927   646151386.406         168.657                                  
  21777218.856   138024744.248        -351.534                                  
  21077128.075  -342083910.710          11.762                                  
 00 04 15 00 17  0.0000000  0  7G 6G10G17G21G22G23G26                           
  21039403.022  1001891483.861         409.511                                  
  24650925.911   587608449.514         606.926                                  
  20476737.900   -81591050.096        -187.716                                  
  24975533.805  -536379109.591        -555.371                                  
  24504968.639   646169189.219         160.767                                  
  21770211.963   137987923.465        -359.680                                  
  21077388.195  -342082544.231           4.887                                  
 00 04 15 00 17 20.0000000  0  7G 6G10G17G21G22G23G26                           
  21047611.259  1001934615.178         420.201                                  
  24663069.606   587672264.075         616.048                                  
  20472988.749   -81610753.560        -177.406                                  
  24964424.960  -536437486.229        -546.151                                  
  24508208.377   646186212.377         171.952                                  
  21763046.013   137950265.315        -348.518                                  
  21077511.286  -342081897.806          16.919                                  
 00 04 15 00 17 40.0000000  0  7G 6G10G17G21G22G23G26                           
  21056040.638  1001978913.996         430.089                                  
  24675397.992   587737046.203         623.758                                  
  20469444.688   -81629374.819        -169.413                                  
  24953502.839  -536494879.495        -538.386                                  
  24511663.058   646204368.567         180.993                                  
  21756089.559   137913708.429        -339.899                                  
  21077870.064  -342080010.911          26.338                                  
 00 04 15 00 18  0.0000000  0  7G 6G10G17G21G22G23G26                           
  21064661.776  1002024214.876         432.637                                  
  24687873.459   587802606.503         624.467                                  
  20466065.575   -81647132.186        -167.224                                  
  24942736.773  -536551454.488        -537.107                                  
  24515301.458   646223487.465         183.490                                  
  21749310.646   137878086.133        -337.012                                  
  21078429.143  -342077073.422          30.646                                  
 00 04 15 00 18 20.0000000  0  7G 6G10G17G21G22G23G26                           
  21073331.966  1002069780.512         437.615                                  
  24700365.581   587868249.363         627.434                                  
  20462725.244   -81664688.139        -163.341                                  
  24931995.233  -536607899.128        -534.284                                  
  24518996.883   646242908.368         188.477                                  
  21742577.715   137842704.210        -333.230                                  
  21079059.731  -342073759.155          35.970                                  
 00 04 15 00 18 40.0000000  0  7G 6G10G17G21G22G23G26                           
  21082095.756  1002115833.183         431.129                                  
  24712906.754   587934155.231         619.134                                  
  20459466.679   -81681810.942        -170.247                                  
  24921319.272  -536664000.945        -541.425                                  
  24522783.301   646262806.960         182.277                                  
  21735925.548   137807750.912        -340.205                                  
  21079810.268  -342069814.633          30.325                                  
 00 04 15 00 19  0.0000000  0  7G 6G10G17G21G22G23G26                           
  21090738.370  1002161248.320         422.545                                  
  24725286.195   587999205.714         608.954                                  
  20456072.251   -81699646.055        -179.559                                  
  24910494.602  -536720885.842        -551.416                                  
  24526443.977   646282043.324         174.042                                  
  21729139.590   137772090.474        -349.397                                  
  21080456.302  -342066420.594          23.513                                  
 00 04 15 00 19 20.0000000  0  7G 6G10G17G21G22G23G26                           
  21099216.974  1002205804.697         428.154                                  
  24737462.296   588063191.969         611.193                                  
  20452502.214   -81718407.100        -175.729                                  
  24899474.307  -536778795.471        -548.299                                  
  24529940.968   646300418.326         178.977                                  
  21722172.467   137735476.793        -344.941                                  
  21080948.280  -342063834.414          28.834                                  
 00 04 15 00 19 40.0000000  0  7G 6G10G17G21G22G23G26                           
  21107796.610  1002250889.786         444.209                                  
  24749689.081   588127443.422         625.201                                  
  20449010.678   -81736756.044        -160.165                                  
  24888527.139  -536836320.429        -533.323                                  
  24533531.682   646319287.808         194.020                                  
  21715279.950   137699258.887        -329.715                                  
  21081547.967  -342060683.397          45.108                                  
 00 04 15 00 20  0.0000000  0  7G 6G10G17G21G22G23G26                           
  21116701.021  1002297682.112         451.847                                  
  24762195.491   588193165.311         630.389                                  
  20445819.951   -81753522.555        -153.879                                  
  24877873.087  -536892308.883        -526.961                                  
  24537440.253   646339826.717         201.925                                  
  21708699.091   137664675.067        -322.515                                  
  21082487.316  -342055745.165          54.079                                  
 00 04 15 00 20 20.0000000  0  6G 6G17G21G22G23G26                              
  21125754.340  1002345259.144         449.616                                  
  20442752.285   -81769642.544        -156.847                                  
  24867338.450  -536947665.913        -530.796                                  
  24541492.087   646361119.236         199.891                                  
  21702252.198   137630796.088        -326.377                                  
  21083590.900  -342049946.630          53.104                                  
 00 04 15 00 20 40.0000000  0  6G 6G17G21G22G23G26                              
  21134763.733  1002392601.122         458.272                                  
  20439629.925   -81786051.688        -147.898                                  
  24856732.164  -537003401.332        -522.737                                  
  24545503.267   646382198.563         209.316                                  
  21695747.205   137596614.457        -317.239                                  
  21084673.163  -342044261.210          62.897                                  
 00 04 15 00 21  0.0000000  0  6G 6G17G21G22G23G26                              
  21143956.041  1002440908.938         457.346                                  
  20436684.249   -81801532.188        -149.256                                  
  24846284.659  -537058300.994        -525.230                                  
  24549702.696   646404264.749         207.931                                  
  21689420.881   137563369.400        -318.987                                  
  21085958.307  -342037506.722          62.059                                  
 00 04 15 00 21 20.0000000  0  6G 6G17G21G22G23G26                              
  21153122.437  1002489076.806         452.186                                  
  20433694.592   -81817244.197        -155.303                                  
  24835789.131  -537113455.522        -531.592                                  
  24553874.712   646426190.028         202.324                                  
  21683060.418   137529946.620        -324.291                                  
  21087237.979  -342030782.704          57.989                                  
 00 04 15 00 21 40.0000000  0  6G 6G17G21G22G23G26                              
  21162181.287  1002536681.805         452.862                                  
  20430580.522   -81833607.909        -155.708                                  
  24825164.166  -537169289.276        -531.460                                  
  24557937.726   646447540.628         203.177                                  
  21676585.748   137495920.191        -323.683                                  
  21088432.994  -342024502.989          60.867                                  
 00 04 15 00 22  0.0000000  0  6G 6G17G21G22G23G26                              
  21171264.641  1002584413.270         448.150                                  
  20427469.866   -81849953.821        -161.539                                  
  24814535.068  -537225143.602        -538.069                                  
  24562025.094   646469019.724         198.253                                  
  21670122.801   137461958.250        -329.658                                  
  21089666.263  -342018020.255          55.708                                  
 00 04 15 00 22 20.0000000  0  6G 6G17G21G22G23G26                              
  21180250.900  1002631636.658         448.112                                  
  20424243.524   -81866908.688        -163.458                                  
  24803778.666  -537281668.491        -540.357                                  
  24566013.718   646489980.153         197.746                                  
  21663548.981   137427411.358        -330.659                                  
  21090817.421  -342011973.635          56.064                                  
 00 04 15 00 22 40.0000000  0  6G 6G17G21G22G23G26                              
  21189224.260  1002678790.829         451.460                                  
  20420985.949   -81884027.410        -159.634                                  
  24792979.219  -537338416.786        -537.868                                  
  24569989.211   646510871.298         201.995                                  
  21656943.368   137392700.495        -327.482                                  
  21091970.603  -342005911.941          61.452                                  
 00 04 15 00 23  0.0000000  0  6G 6G17G21G22G23G26                              
  21198276.075  1002726358.695         444.088                                  
  20417793.742   -81900801.514        -168.107                                  
  24782234.991  -537394877.742        -545.973                                  
  24574041.916   646532166.667         194.060                                  
  21650409.996   137358368.244        -336.053                                  
  21093223.998  -341999323.058          54.034                                  
 00 04 15 00 23 20.0000000  0  6G 6G17G21G22G23G26                              
  21207184.678  1002773173.514         450.206                                  
  20414447.122   -81918386.761        -162.814                                  
  24771326.107  -537452202.660        -541.788                                  
  24577947.373   646552689.575         200.309                                  
  21643721.378   137323221.038        -329.766                                  
  21094347.641  -341993421.054          61.244                                  
 00 04 15 00 23 40.0000000  0  6G 6G17G21G22G23G26                              
  21216205.034  1002820574.428         461.114                                  
  20411198.486   -81935458.147        -152.993                                  
  24760498.760  -537509097.732        -532.320                                  
  24581965.859   646573806.147         210.518                                  
  21637139.992   137288632.829        -319.495                                  
  21095601.712  -341986830.999          72.878                                  
 00 04 15 00 24  0.0000000  0  6G 6G17G21G22G23G26                              
  21225440.490  1002869106.413         464.597                                  
  20408145.827   -81951501.170        -150.118                                  
  24749857.412  -537565017.690        -530.497                                  
  24586195.944   646596037.853         214.095                                  
  21630757.479   137255093.579        -316.683                                  
  21097083.599  -341979041.147          77.161                                  
 00 04 15 00 24 20.0000000  0  6G 6G17G21G22G23G26                              
  21234751.123  1002918033.766         471.341                                  
  20405154.585   -81967219.651        -145.071                                  
  24739262.738  -537620693.290        -524.996                                  
  24590504.764   646618677.866         221.030                                  
  21624435.633   137221871.820        -310.353                                  
  21098653.990  -341970791.908          84.514                                  
 00 04 15 00 24 40.0000000  0  6G 6G17G21G22G23G26                              
  21244190.343  1002967636.885         474.162                                  
  20402287.203   -81982287.960        -141.178                                  
  24728767.285  -537675844.894        -522.619                                  
  24594946.562   646642019.275         223.789                                  
  21618233.119   137189280.512        -308.133                                  
  21100373.831  -341961753.948          89.558                                  
 00 04 15 00 25  0.0000000  0  6G 6G17G21G22G23G26                              
  21253702.884  1003017627.359         493.776                                  
  20399478.134   -81997050.840        -123.302                                  
  24718318.555  -537730752.237        -505.637                                  
  24599456.893   646665720.834         242.858                                  
  21612090.005   137156997.598        -289.526                                  
  21102184.488  -341952237.594         108.430                                  
 00 04 15 00 25 20.0000000  0  6G 6G17G21G22G23G26                              
  21263597.242  1003069620.446         504.607                                  
  20397038.531   -82009871.935        -111.794                                  
  24708219.811  -537783820.700        -495.579                                  
  24604340.652   646691385.144         253.707                                  
  21606306.488   137126606.318        -279.222                                  
  21104385.554  -341940669.487         120.628                                  
 00 04 15 00 25 40.0000000  0  6G 6G17G21G22G23G26                              
  21273703.133  1003122726.544         494.824                                  
  20394810.421   -82021581.698        -121.929                                  
  24698312.380  -537835883.015        -506.480                                  
  24609437.446   646718169.780         244.085                                  
  21600730.624   137097303.857        -290.232                                  
  21106826.039  -341927845.256         111.320                                  
 00 04 15 00 26  0.0000000  0  6G 6G17G21G22G23G26                              
  21283607.605  1003174775.220         496.890                                  
  20392375.209   -82034376.830        -119.980                                  
  24688186.567  -537889093.834        -504.685                                  
  24614335.056   646743906.781         246.816                                  
  21594949.397   137066924.423        -287.320                                  
  21109085.153  -341915975.439         115.291                                  
 00 04 15 00 26 20.0000000  0  6G 6G17G21G22G23G26                              
  21293564.419  1003227097.992         485.880                                  
  20389982.263   -82046952.071        -132.239                                  
  24678089.652  -537942152.725        -517.508                                  
  24619289.794   646769943.404         236.044                                  
  21589216.860   137036800.835        -299.490                                  
  21111420.473  -341903701.058         105.374                                  
 00 04 15 00 26 40.0000000  0  6G 6G17G21G22G23G26                              
  21303305.765  1003278286.693         497.567                                  
  20387351.808   -82060773.774        -122.020                                  
  24667739.151  -537996542.370        -507.868                                  
  24624023.390   646794817.976         247.026                                  
  21583261.355   137005502.774        -287.733                                  
  21113549.833  -341892511.899         116.629                                  
 00 04 15 00 27  0.0000000  0  6G 6G17G21G22G23G26                              
  21313266.884  1003330633.468         501.644                                  
  20384919.138   -82073559.067        -118.640                                  
  24657577.526  -538049940.475        -505.078                                  
  24628974.801   646820836.985         250.985                                  
  21577516.780   136975316.406        -284.295                                  
  21115910.540  -341880107.565         122.356                                  
 00 04 15 00 27 20.0000000  0  6G 6G17G21G22G23G26                              
  21323325.444  1003383492.803         507.481                                  
  20382564.128   -82085933.464        -112.807                                  
  24647487.794  -538102961.978        -500.373                                  
  24634010.327   646847299.464         256.494                                  
  21571852.783   136945554.941        -278.462                                  
  21118382.465  -341867113.750         129.103                                  
 00 04 15 00 27 40.0000000  0  6G 6G17G21G22G23G26                              
  21333502.807  1003436971.723         516.010                                  
  20380312.298   -82097767.732        -105.295                                  
  24637490.009  -538155499.314        -492.929                                  
  24639156.320   646874339.504         265.511                                  
  21566290.272   136916320.257        -271.116                                  
  21120989.814  -341853415.335         138.670                                  
 00 04 15 00 28  0.0000000  0  6G 6G17G21G22G23G26                              
  21343853.493  1003491364.071         535.457                                  
  20378216.020   -82108783.547         -86.857                                  
  24627643.133  -538207243.988        -474.967                                  
  24644474.863   646902289.616         283.564                                  
  21560885.214   136887917.173        -252.929                                  
  21123791.281  -341838693.349         157.710                                  
 00 04 15 00 28 20.0000000  0  6G 6G17G21G22G23G26                              
  21354581.871  1003547742.942         536.413                                  
  20376479.939   -82117905.743         -87.579                                  
  24618140.970  -538257175.200        -476.351                                  
  24650162.109   646932176.507         283.774                                  
  21555837.140   136861389.889        -252.853                                  
  21126978.766  -341821942.447         159.820                                  
 00 04 15 00 28 40.0000000  0  6G 6G17G21G22G23G26                              
  21365320.011  1003604171.081         535.052                                  
  20374744.054   -82127024.613         -88.731                                  
  24608624.473  -538307185.078        -478.289                                  
  24655858.774   646962112.287         282.410                                  
  21550790.487   136834869.309        -255.247                                  
  21130201.565  -341805007.146         159.617                                  
 00 04 15 00 29  0.0000000  0  6G 6G17G21G22G23G26                              
  21376033.397  1003660471.910         541.346                                  
  20372977.240   -82136311.606         -83.003                                  
  24599060.746  -538357441.927        -473.340                                  
  24661530.578   646991919.694         289.777                                  
  21545707.309   136808159.518        -248.521                                  
  21133420.515  -341788092.824         166.982                                  
 00 04 15 00 29 20.0000000  0  6G 6G17G21G22G23G26                              
  21386878.760  1003717462.562         549.147                                  
  20371332.354   -82144955.139         -75.741                                  
  24589603.146  -538407139.258        -466.635                                  
  24667336.217   647022426.795         297.432                                  
  21540748.998   136782101.681        -241.814                                  
  21136792.416  -341770371.300         175.989                                  
 00 04 15 00 29 40.0000000  0  6G 6G17G21G22G23G26                              
  21397874.730  1003775246.460         541.770                                  
  20369837.791   -82152810.795         -82.763                                  
  24580273.970  -538456164.830        -475.039                                  
  24673300.458   647053768.693         290.281                                  
  21535941.066   136756836.103        -248.262                                  
  21140329.165  -341751786.111         169.139                                  
 00 04 15 00 30  0.0000000  0  6G 6G17G21G22G23G26                              
  21408725.469  1003832265.423         540.548                                  
  20368194.814   -82161445.134         -85.162                                  
  24570776.546  -538506073.135        -477.449                                  
  24679118.474   647084339.465         288.456                                  
  21530989.960   136730821.006        -250.272                                  
  21143736.426  -341733879.752         168.638                                  
 00 04 15 00 30 20.0000000  0  6G 6G17G21G22G23G26                              
  21419553.676  1003889169.962         541.901                                  
  20366515.658   -82170268.533         -84.118                                  
  24561230.554  -538556236.758        -478.244                                  
  24684910.218   647114775.976         289.812                                  
  21525998.404   136704588.558        -250.105                                  
  21147141.359  -341715987.436         170.335                                  
 00 04 15 00 30 40.0000000  0  6G 6G17G21G22G23G26                              
  21430398.536  1003946158.517         517.001                                  
  20364833.113   -82179108.677        -108.944                                  
  24551673.854  -538606456.026        -504.078                                  
  24690714.534   647145275.768         265.261                                  
  21521007.979   136678366.595        -274.406                                  
  21150580.087  -341697918.464         147.835                                  
 00 04 15 00 31  0.0000000  0  6G 6G17G21G22G23G26                              
  21440766.544  1004000641.064         530.383                                  
  20362660.351   -82190527.122         -96.906                                  
  24541619.811  -538659290.045        -491.148                                  
  24696041.202   647173267.825         278.530                                  
  21515530.781   136649581.573        -262.416                                  
  21153559.177  -341682261.369         161.438                                  
 00 04 15 00 31 20.0000000  0  6G 6G17G21G22G23G26                              
  21451387.259  1004056454.587         528.348                                  
  20360732.421   -82200657.786         -99.074                                  
  24531795.867  -538710912.061        -494.622                                  
  24701626.926   647202621.716         277.023                                  
  21510295.497   136622072.359        -263.999                                  
  21156807.747  -341665191.520         160.539                                  
 00 04 15 00 31 40.0000000  0  6G 6G17G21G22G23G26                              
  21461979.471  1004112116.919         541.093                                  
  20358766.246   -82210992.137         -86.953                                  
  24521913.411  -538762844.015        -483.605                                  
  24707186.380   647231836.131         289.987                                  
  21505023.849   136594367.602        -252.293                                  
  21160045.442  -341648177.834         173.416                                  
 00 04 15 00 32  0.0000000  0  6G 6G17G21G22G23G26                              
  21472813.811  1004169051.431         536.502                                  
  20357037.946   -82220073.627         -91.808                                  
  24512254.739  -538813599.078        -488.659                                  
  24712990.652   647262335.701         285.167                                  
  21499995.660   136567946.526        -256.537                                  
  21163550.194  -341629759.792         170.768                                  
 00 04 15 00 32 20.0000000  0  6G 6G17G21G22G23G26                              
  21483563.554  1004225539.548         544.179                                  
  20355216.630   -82229645.795         -84.811                                  
  24502486.725  -538864930.697        -482.594                                  
  24718701.358   647292346.616         292.202                                  
  21494879.539   136541060.169        -249.623                                  
  21166999.169  -341611633.630         180.061                                  
 00 04 15 00 32 40.0000000  0  7G 3G 6G17G21G22G23G26                           
  24680181.015   169149641.868        -585.900                                  
  21494467.716  1004282839.963         554.507                                  
  20353535.660   -82238476.534         -75.123                                  
  24492841.784  -538915612.601        -472.977                                  
  24724565.775   647323165.042         302.071                                  
  21489909.106   136514940.793        -239.430                                  
  21170622.344  -341592595.691         191.264                                  
 00 04 15 00 33  0.0000000  0  7G 3G 6G17G21G22G23G26                           
  24668459.776   169088048.602        -584.050                                  
  21505571.922  1004341192.304         558.633                                  
  20352044.037   -82246316.624         -71.815                                  
  24483379.784  -538965335.289        -470.660                                  
  24730635.218   647355059.846         306.076                                  
  21485134.802   136489854.319        -235.823                                  
  21174466.109  -341572395.601         195.691                                  
 00 04 15 00 33 20.0000000  0  7G 3G 6G17G21G22G23G26                           
  24656793.037   169026737.226        -575.933                                  
  21516748.589  1004399926.907         566.887                                  
  20350621.873   -82253789.130         -62.726                                  
  24473967.307  -539014795.432        -462.983                                  
  24736775.074   647387322.048         315.523                                  
  21480430.409   136465129.852        -227.292                                  
  21178405.590  -341551693.937         206.105                                  
 00 04 15 00 33 40.0000000  0  7G 3G 6G17G21G22G23G26                           
  24645287.159   168966275.397        -576.403                                  
  21528106.724  1004459612.873         567.980                                  
  20349372.006   -82260356.535         -63.551                                  
  24464717.678  -539063402.525        -463.404                                  
  24743092.648   647420522.011         315.219                                  
  21475899.659   136441324.234        -227.581                                  
  21182546.477  -341529933.744         207.421                                  
 00 04 15 00 34  0.0000000  0  7G 3G 6G17G21G22G23G26                           
  24633771.660   168905762.269        -570.166                                  
  21539471.325  1004519333.775         574.262                                  
  20348123.296   -82266919.723         -56.874                                  
  24455457.187  -539112066.187        -458.251                                  
  24749414.797   647453744.742         322.058                                  
  21471367.075   136417503.257        -221.089                                  
  21186709.728  -341508056.223         213.976                                  
 00 04 15 00 34 20.0000000  0  7G 3G 6G17G21G22G23G26                           
  24622369.082   168845843.982        -578.159                                  
  21550963.361  1004579724.053         566.494                                  
  20346994.769   -82272847.718         -64.540                                  
  24446304.254  -539160163.892        -466.828                                  
  24755862.178   647487626.329         314.274                                  
  21466955.089   136394319.559        -229.131                                  
  21191014.623  -341485432.645         207.329                                  
 00 04 15 00 34 40.0000000  0  7G 3G 6G17G21G22G23G26                           
  24610810.846   168785104.097        -585.419                                  
  21562315.856  1004639380.498         560.677                                  
  20345713.164   -82279585.532         -71.225                                  
  24436982.450  -539209147.903        -473.322                                  
  24762166.694   647520754.693         308.659                                  
  21462387.208   136370314.569        -235.690                                  
  21195197.838  -341463449.604         203.099                                  
 00 04 15 00 35  0.0000000  0  7G 3G 6G17G21G22G23G26                           
  24599118.973   168723663.903        -570.175                                  
  21573553.715  1004698437.323         576.352                                  
  20344305.471   -82286982.839         -56.765                                  
  24427517.756  -539258881.877        -459.206                                  
  24768346.691   647553231.769         323.424                                  
  21457689.904   136345629.794        -220.882                                  
  21199283.522  -341441980.628         219.818                                  
 00 04 15 00 35 20.0000000  0  7G 3G 6G17G21G22G23G26                           
  24587720.988   168663769.470        -574.278                                  
  21585100.342  1004759113.128         573.177                                  
  20343192.844   -82292828.689         -59.584                                  
  24418339.799  -539307115.391        -463.820                                  
  24774835.570   647587329.407         320.197                                  
  21453293.471   136322527.210        -223.818                                  
  21203701.454  -341418764.984         217.311                                  
 00 04 15 00 35 40.0000000  0  7G 3G 6G17G21G22G23G26                           
  24576250.711   168603493.438        -568.170                                  
  21596578.046  1004819430.758         579.414                                  
  20342007.083   -82299060.350         -54.066                                  
  24409071.719  -539355816.671        -458.291                                  
  24781254.316   647621060.382         326.108                                  
  21448827.288   136299057.000        -217.533                                  
  21208076.309  -341395773.886         225.024                                  
 00 04 15 00 36  0.0000000  0  7G 3G 6G17G21G22G23G26                           
  24564893.690   168543813.917        -580.326                                  
  21608174.107  1004880364.774         566.625                                  
  20340938.311   -82304676.125         -66.245                                  
  24399900.674  -539404008.889        -471.531                                  
  24787798.176   647655446.249         314.302                                  
  21444474.738   136276185.181        -230.641                                  
  21212596.324  -341372019.982         214.095                                  
 00 04 15 00 36 20.0000000  0  7G 3G 6G17G21G22G23G26                           
  24553281.146   168482791.558        -580.238                                  
  21619528.916  1004940035.318         568.023                                  
  20339623.856   -82311584.209         -66.011                                  
  24390479.117  -539453519.965        -471.019                                  
  24794097.728   647688551.022         314.822                                  
  21439870.150   136251987.883        -230.113                                  
  21216893.825  -341349438.132         215.164                                  
 00 04 15 00 36 40.0000000  0  7G 3G 6G17G21G22G23G26                           
  24541677.791   168421815.144        -590.018                                  
  21630902.699  1004999803.815         559.669                                  
  20338324.792   -82318409.094         -74.165                                  
  24381059.886  -539503017.116        -480.368                                  
  24800411.762   647721731.720         306.370                                  
  21435279.045   136227863.216        -239.000                                  
  21221219.963  -341326704.377         207.699                                  
 00 04 15 00 37  0.0000000  0  7G 3G 6G17G21G22G23G26                           
  24529893.841   168359890.447        -587.923                                  
  21642115.713  1005058728.620         561.601                                  
  20336854.182   -82326138.505         -72.043                                  
  24371457.649  -539553477.316        -479.279                                  
  24806561.406   647754049.544         309.375                                  
  21430516.358   136202834.710        -236.609                                  
  21225402.699  -341304724.354         211.154                                  
 00 04 15 00 37 20.0000000  0  7G 3G 6G17G21G22G23G26                           
  24518142.998   168298143.577        -581.715                                  
  21653376.518  1005117901.970         569.806                                  
  20335429.610   -82333624.572         -64.562                                  
  24361881.901  -539603796.378        -472.512                                  
  24812760.764   647786626.247         315.945                                  
  21425787.787   136177985.056        -230.317                                  
  21229657.577  -341282364.809         219.426                                  
 00 04 15 00 37 40.0000000  0  7G 3G 6G17G21G22G23G26                           
  24506522.228   168237076.981        -574.093                                  
  21664786.720  1005177864.351         578.515                                  
  20334145.882   -82340371.581         -56.809                                  
  24352433.217  -539653447.477        -465.514                                  
  24819105.560   647819965.756         325.176                                  
  21421194.698   136153849.708        -222.683                                  
  21234078.756  -341259132.074         229.377                                  
 00 04 15 00 38  0.0000000  0  7G 3G 6G17G21G22G23G26                           
  24495048.110   168176780.748        -562.957                                  
  21676362.655  1005238693.666         589.315                                  
  20333016.405   -82346304.476         -45.614                                  
  24343127.742  -539702347.164        -455.415                                  
  24825617.833   647854189.120         336.501                                  
  21416759.460   136130542.771        -211.216                                  
  21238684.453  -341234929.452         241.189                                  
 00 04 15 00 38 20.0000000  0  7G 3G 6G17G21G22G23G26                           
  24483791.952   168117628.958        -563.812                                  
  21688172.915  1005300756.290         590.595                                  
  20332109.829   -82351070.102         -45.684                                  
  24334028.827  -539750159.785        -455.823                                  
  24832365.277   647889645.136         336.866                                  
  21412550.707   136108425.546        -211.510                                  
  21243540.148  -341209410.553         243.051                                  
 00 04 15 00 38 40.0000000  0  7G 3G 6G17G21G22G23G26                           
  24472531.736   168058456.921        -558.081                                  
  21699995.158  1005362884.299         597.141                                  
  20331208.323   -82355807.632         -39.577                                  
  24324919.967  -539798025.695        -450.256                                  
  24839119.845   647925141.593         343.958                                  
  21408350.693   136086355.677        -203.800                                  
  21248424.499  -341183741.860         250.809                                  
 00 04 15 00 39  0.0000000  0  7G 3G 6G17G21G22G23G26                           
  24461392.370   167999922.282        -564.389                                  
  21711950.563  1005425710.044         590.458                                  
  20330428.331   -82359904.905         -46.935                                  
  24315923.136  -539845305.286        -457.402                                  
  24846002.944   647961310.336         337.732                                  
  21404282.651   136064977.465        -210.969                                  
  21253462.991  -341157267.478         245.204                                  
 00 04 15 00 39 20.0000000  0  7G 3G 6G17G21G22G23G26                           
  24450111.567   167940641.326        -565.115                                  
  21723779.150  1005487868.786         591.112                                  
  20329516.452   -82364696.022         -46.565                                  
  24306778.332  -539893360.332        -458.673                                  
  24852760.904   647996824.681         336.964                                  
  21400081.217   136042900.066        -211.233                                  
  21258392.546  -341131362.698         246.581                                  
 00 04 15 00 39 40.0000000  0  7G 3G 6G17G21G22G23G26                           
  24438816.883   167881289.220        -554.199                                  
  21735613.489  1005550057.376         602.485                                  
  20328602.630   -82369500.775         -35.088                                  
  24297607.632  -539941550.640        -448.535                                  
  24859523.745   648032363.135         349.136                                  
  21395875.596   136020797.992        -199.678                                  
  21263348.892  -341105315.972         258.584                                  
 00 04 15 00 40  0.0000000  0  7G 3G 6G17G21G22G23G26                           
  24427749.323   167823129.083        -544.637                                  
  21747680.495  1005613468.490         612.805                                  
  20327914.574   -82373115.488         -25.953                                  
  24288645.519  -539988648.098        -440.367                                  
  24866522.298   648069140.797         358.303                                  
  21391901.815   135999914.675        -190.418                                  
  21268560.245  -341077931.006         270.165                                  
 00 04 15 00 40 20.0000000  0  7G 3G 6G17G21G22G23G26                           
  24416869.473   167765954.899        -539.410                                  
  21759950.085  1005677946.744         618.377                                  
  20327420.798   -82375710.969         -19.678                                  
  24279856.669  -540034831.769        -435.213                                  
  24873713.278   648106928.075         364.343                                  
  21388121.054   135980048.258        -184.313                                  
  21273987.793  -341049409.462         276.334                                  
 00 04 15 00 40 40.0000000  0  7G 3G 6G17G21G22G23G26                           
  24406090.358   167709311.491        -547.426                                  
  21772338.038  1005743043.986         610.657                                  
  20327032.180   -82377750.991         -27.803                                  
  24271170.058  -540080478.960        -442.893                                  
  24881011.842   648145283.334         356.100                                  
  21384445.766   135960734.589        -192.404                                  
  21279548.508  -341020186.330         270.544                                  
 00 04 15 00 41  0.0000000  0  7G 3G 6G17G21G22G23G26                           
  24395145.952   167651803.527        -542.436                                  
  21784570.824  1005807327.512         616.694                                  
  20326481.088   -82380648.586         -22.572                                  
  24262312.378  -540127024.869        -439.148                                  
  24888153.978   648182814.489         361.581                                  
  21380611.172   135940585.006        -187.200                                  
  21284978.458  -340991651.649         277.071                                  
 00 04 15 00 41 20.0000000  0  7G 3G 6G17G21G22G23G26                           
  24384302.791   167594821.134        -540.108                                  
  21796909.985  1005872171.384         619.120                                  
  20326031.707   -82383009.909         -20.538                                  
  24253541.731  -540173113.484        -436.938                                  
  24895400.009   648220890.634         364.082                                  
  21376880.470   135920978.962        -184.308                                  
  21290539.755  -340962427.361         280.873                                  
 00 04 15 00 41 40.0000000  0  6G 3G 6G17G21G23G26                              
  24373505.353   167538082.347        -539.881                                  
  21809310.655  1005937333.990         620.454                                  
  20325643.885   -82385048.304         -19.204                                  
  24244810.285  -540218998.109        -436.923                                  
  21373207.210   135901676.913        -183.112                                  
  21296181.152  -340932780.710         282.659                                  
 00 04 15 00 42  0.0000000  0  6G 3G 6G17G21G23G26                              
  24362723.690   167481424.897        -536.625                                  
  21821734.321  1006002618.873         623.507                                  
  20325277.263   -82386975.026         -15.372                                  
  24236089.426  -540264824.469        -434.033                                  
  21369547.039   135882443.950        -180.846                                  
  21301864.855  -340902915.676         286.695                                  
 00 04 15 00 42 20.0000000  0  6G 3G 6G17G21G23G26                              
  24352008.703   167425117.033        -515.138                                  
  21834228.197  1006068276.158         645.101                                  
  20324977.885   -82388549.326           6.207                                  
  24227423.237  -540310363.621        -413.135                                  
  21365948.132   135863531.047        -159.724                                  
  21307636.530  -340872582.399         309.777                                  
 00 04 15 00 42 40.0000000  0  6G 3G 6G17G21G23G26                              
  24341722.798   167371067.421        -519.140                                  
  21847152.091  1006136189.898         641.433                                  
  20325104.470   -82387882.816           1.116                                  
  24219170.068  -540353733.325        -417.570                                  
  21362773.408   135846850.145        -163.054                                  
  21313858.802  -340839886.317         306.099                                  
 00 04 15 00 43  0.0000000  0  6G 3G 6G17G21G23G26                              
  24331351.229   167316567.279        -529.389                                  
  21859991.895  1006203662.944         631.136                                  
  20325147.869   -82387654.443          -9.430                                  
  24210817.033  -540397628.018        -429.097                                  
  21359512.377   135829710.292        -173.930                                  
  21320020.915  -340807504.080         298.172                                  
 00 04 15 00 43 20.0000000  0  6G 3G 6G17G21G23G26                              
  24320768.412   167260952.840        -551.902                                  
  21872626.775  1006270060.346         609.877                                  
  20324983.643   -82388515.163         -30.610                                  
  24202240.535  -540442696.437        -451.032                                  
  21356041.799   135811474.837        -195.843                                  
  21326001.723  -340776074.640         277.337                                  
 00 04 15 00 43 40.0000000  0  6G 3G 6G17G21G23G26                              
  24309750.327   167203052.780        -551.922                                  
  21884836.517  1006334220.234         609.586                                  
  20324395.131   -82391609.224         -30.210                                  
  24193216.366  -540490118.029        -452.556                                  
  21352143.730   135790990.302        -196.111                                  
  21331580.674  -340746757.692         278.853                                  
 00 04 15 00 44  0.0000000  0  6G 3G 6G17G21G23G26                              
  24298717.042   167145075.290        -556.821                                  
  21897037.087  1006398335.247         604.680                                  
  20323797.060   -82394752.912         -36.080                                  
  24184168.811  -540537661.947        -458.234                                  
  21348232.903   135770438.908        -200.655                                  
  21337172.221  -340717371.408         274.933                                  
 00 04 15 00 44 20.0000000  0  6G 3G 6G17G21G23G26                              
  24287591.025   167086607.946        -565.589                                  
  21909149.993  1006461986.990         595.756                                  
  20323097.943   -82398424.647         -44.265                                  
  24175006.133  -540585809.791        -468.009                                  
  21344223.881   135749374.134        -210.187                                  
  21342692.367  -340688364.529         267.716                                  
 00 04 15 00 44 40.0000000  0  6G 3G 6G17G21G23G26                              
  24276288.433   167027213.681        -546.673                                  
  21921085.150  1006524707.923         615.269                                  
  20322227.073   -82403003.593         -25.210                                  
  24165651.847  -540634966.426        -449.399                                  
  21340044.254   135727406.740        -190.469                                  
  21348065.131  -340660130.036         287.787                                  
 00 04 15 00 45  0.0000000  0  6G 3G 6G17G21G23G26                              
  24265358.994   166969778.458        -539.684                                  
  21933400.914  1006589427.222         622.784                                  
  20321740.305   -82405562.077         -17.340                                  
  24156666.117  -540682188.025        -442.771                                  
  21336250.794   135707472.750        -182.768                                  
  21353845.244  -340629758.179         296.311                                  
 00 04 15 00 45 20.0000000  0  6G 3G 6G17G21G23G26                              
  24254570.363   166913086.187        -533.474                                  
  21945874.121  1006654970.472         629.509                                  
  20321402.712   -82407336.576         -11.063                                  
  24147818.601  -540728678.996        -436.995                                  
  21332612.240   135688351.930        -176.288                                  
  21359801.715  -340598456.066         304.348                                  
 00 04 15 00 45 40.0000000  0  6G 3G 6G17G21G23G26                              
  24243900.353   166857015.826        -532.241                                  
  21958479.266  1006721213.528         631.778                                  
  20321201.490   -82408391.046          -7.941                                  
  24139084.390  -540774576.335        -435.988                                  
  21329101.698   135669904.754        -173.899                                  
  21365914.713  -340566331.477         307.577                                  
 00 04 15 00 46  0.0000000  0  6G 3G 6G17G21G23G26                              
  24233266.018   166801134.310        -553.779                                  
  21971130.277  1006787693.618         610.695                                  
  20321051.491   -82409180.008         -29.118                                  
  24130368.374  -540820378.363        -458.612                                  
  21325629.258   135651655.282        -195.918                                  
  21372096.772  -340533844.555         288.284                                  
 00 04 15 00 46 20.0000000  0  6G 3G 6G17G21G23G26                              
  24222211.124   166743041.535        -537.442                                  
  21983361.241  1006851967.657         626.742                                  
  20320479.017   -82412190.217         -13.580                                  
  24121220.865  -540868447.289        -442.373                                  
  21321733.193   135631184.154        -179.334                                  
  21377886.402  -340503418.998         305.326                                  
 00 04 15 00 46 40.0000000  0  6G 3G 6G17G21G23G26                              
  24211474.984   166686623.096        -538.080                                  
  21995919.050  1006917959.165         627.032                                  
  20320221.313   -82413544.737         -14.333                                  
  24112386.862  -540914869.773        -443.155                                  
  21318158.572   135612399.778        -180.222                                  
  21384020.832  -340471183.027         306.209                                  
 00 04 15 00 47  0.0000000  0  6G 3G 6G17G21G23G26                              
  24200724.929   166630132.410        -544.525                                  
  22008464.715  1006983884.758         620.042                                  
  20319951.621   -82414958.452         -21.089                                  
  24103527.956  -540961425.015        -450.248                                  
  21314570.007   135593538.955        -185.963                                  
  21390164.272  -340438897.319         300.694                                  
 00 04 15 00 47 20.0000000  0  6G 3G 6G17G21G23G26                              
  24189847.961   166572974.494        -561.292                                  
  22020887.083  1007049164.200         603.808                                  
  20319558.577   -82417022.967         -37.209                                  
  24094530.613  -541008703.159        -467.527                                  
  21310850.562   135573995.194        -203.094                                  
  21396199.234  -340407186.925         285.118                                  
 00 04 15 00 47 40.0000000  0  6G 3G 6G17G21G23G26                              
  24178640.904   166514084.060        -556.864                                  
  22032974.432  1007112682.380         608.615                                  
  20318834.106   -82420831.396         -32.503                                  
  24085182.541  -541057829.083        -463.844                                  
  21306792.360   135552670.828        -199.122                                  
  21401921.951  -340377112.520         290.646                                  
 00 04 15 00 48  0.0000000  0  6G 3G 6G17G21G23G26                              
  24167523.715   166455661.131        -535.772                                  
  22045147.344  1007176650.223         628.909                                  
  20318204.326   -82424142.801         -11.464                                  
  24075917.997  -541106512.125        -442.839                                  
  21302830.846   135531851.864        -177.272                                  
  21407759.777  -340346437.019         312.818                                  
 00 04 15 00 48 20.0000000  0  6G 3G 6G17G21G23G26                              
  24156825.858   166399445.431        -530.128                                  
  22057746.782  1007242861.868         634.868                                  
  20317999.190   -82425217.977          -5.367                                  
  24067065.697  -541153030.206        -438.597                                  
  21299294.215   135513265.956        -172.195                                  
  21414043.946  -340313412.983         319.229                                  
 00 04 15 00 48 40.0000000  0  6G 3G 6G17G21G23G26                              
  24146242.379   166343829.868        -520.835                                  
  22070463.558  1007309688.471         644.407                                  
  20317906.707   -82425706.959           3.453                                  
  24058311.627  -541199032.775        -429.023                                  
  21295867.729   135495261.707        -162.837                                  
  21420463.568  -340279678.659         329.877                                  
 00 04 15 00 49  0.0000000  0  6G 3G 6G17G21G23G26                              
  24135846.016   166289197.412        -519.168                                  
  22083369.668  1007377508.382         646.359                                  
  20318001.038   -82425210.032           5.248                                  
  24049730.559  -541244125.451        -429.100                                  
  21292627.358   135478233.426        -161.751                                  
  21427083.274  -340244890.787         331.876                                  
 00 04 15 00 49 20.0000000  0  6G 3G 6G17G21G23G26                              
  24125474.603   166234695.996        -509.843                                  
  22096306.699  1007445492.819         655.419                                  
  20318122.177   -82424574.873          14.107                                  
  24041161.375  -541289155.121        -419.925                                  
  21289410.538   135461328.968        -152.763                                  
  21433751.142  -340209850.760         341.801                                  
 00 04 15 00 49 40.0000000  0  6G 3G 6G17G21G23G26                              
  24115271.454   166181078.699        -521.486                                  
  22109417.193  1007514388.243         644.033                                  
  20318418.796   -82423015.026           3.048                                  
  24032757.484  -541333316.457        -432.329                                  
  21286359.723   135445297.627        -163.786                                  
  21440617.742  -340173766.212         332.433                                  
 00 04 15 00 50  0.0000000  0  6G 3G 6G17G21G23G26                              
  24104842.995   166126279.348        -513.160                                  
  22122313.001  1007582155.527         652.904                                  
  20318494.571   -82422617.543          11.532                                  
  24024114.855  -541378732.324        -424.427                                  
  21283090.325   135428115.676        -155.450                                  
  21447286.852  -340138720.064         342.866                                  
 00 04 15 00 50 20.0000000  0  6G 3G 6G17G21G23G26                              
  24094586.260   166072382.178        -506.533                                  
  22135387.429  1007650861.750         660.308                                  
  20318746.041   -82421295.573          19.679                                  
  24015628.791  -541423324.074        -417.985                                  
  21279993.634   135411844.728        -148.304                                  
  21454156.161  -340102622.570         350.729                                  
 00 04 15 00 50 40.0000000  0  6G 3G 6G17G21G23G26                              
  24084473.566   166019239.175        -506.694                                  
  22148606.695  1007720328.879         659.743                                  
  20319140.315   -82419222.659          18.790                                  
  24007266.113  -541467271.312        -419.851                                  
  21277037.735   135396310.118        -149.086                                  
  21461197.412  -340065619.673         351.783                                  
 00 04 15 00 51  0.0000000  0  6G 3G 6G17G21G23G26                              
  24074348.387   165966032.482        -501.048                                  
  22161823.016  1007789778.926         666.482                                  
  20319522.989   -82417211.438          25.303                                  
  23998872.299  -541511381.314        -414.858                                  
  21274071.270   135380722.286        -142.484                                  
  21468259.098  -340028511.976         358.957                                  
 00 04 15 00 51 20.0000000  0  6G 3G 6G17G21G23G26                              
  24064348.245   165913482.441        -485.424                                  
  22175165.115  1007859892.788         681.591                                  
  20320038.857   -82414499.112          40.159                                  
  23990586.437  -541554921.877        -400.555                                  
  21271228.228   135365780.270        -127.879                                  
  21475472.014  -339990607.168         376.290                                  
 00 04 15 00 51 40.0000000  0  6G 3G 6G17G21G23G26                              
  24054641.663   165862475.415        -482.309                                  
  22188810.275  1007931596.841         685.459                                  
  20320856.171   -82410205.636          43.907                                  
  23982585.560  -541596967.280        -396.954                                  
  21268683.163   135352405.764        -123.979                                  
  21483013.306  -339950978.829         380.853                                  
 00 04 15 00 52  0.0000000  0  6G 3G 6G17G21G23G26                              
  24045005.918   165811840.123        -473.539                                  
  22202530.138  1008003692.064         694.025                                  
  20321751.475   -82405499.866          53.022                                  
  23974649.317  -541638670.440        -389.059                                  
  21266214.735   135339436.345        -115.618                                  
  21490651.773  -339910838.242         390.049                                  
 00 04 15 00 52 20.0000000  0  6G 3G 6G17G21G23G26                              
  24035543.573   165762116.033        -485.848                                  
  22216420.969  1008076690.622         681.745                                  
  20322825.824   -82399853.261          40.828                                  
  23966875.087  -541679523.125        -402.229                                  
  21263919.082   135327371.877        -127.075                                  
  21498475.620  -339869722.548         378.448                                  
 00 04 15 00 52 40.0000000  0  6G 3G 6G17G21G23G26                              
  24025833.555   165711090.473        -474.000                                  
  22230066.560  1008148397.351         693.762                                  
  20323658.734   -82395478.996          53.387                                  
  23958844.728  -541721720.979        -390.522                                  
  21261383.053   135314046.809        -115.075                                  
  21506074.008  -339829792.508         391.713                                  
 00 04 15 00 53  0.0000000  0  6G 3G 6G17G21G23G26                              
  24016362.708   165661323.205        -457.825                                  
  22243951.630  1008221363.578         709.358                                  
  20324735.481   -82389817.853          69.033                                  
  23951040.681  -541762733.170        -374.627                                  
  21259095.612   135302025.336         -98.586                                  
  21513931.967  -339788499.599         408.885                                  
 00 04 15 00 53 20.0000000  0  6G 3G 6G17G21G23G26                              
  24007222.973   165613292.770        -463.480                                  
  22258159.164  1008296022.705         703.475                                  
  20326143.072   -82382423.296          63.755                                  
  23943551.476  -541802086.578        -380.997                                  
  21257133.903   135291717.676        -104.972                                  
  21522134.048  -339745397.315         404.217                                  
 00 04 15 00 53 40.0000000  0  6G 3G 6G17G21G23G26                              
  23997963.891   165564634.898        -470.178                                  
  22272242.921  1008370032.268         696.260                                  
  20327430.565   -82375657.241          57.273                                  
  23935929.422  -541842141.909        -389.284                                  
  21255043.225   135280729.766        -112.179                                  
  21530241.306  -339702793.212         398.420                                  
 00 04 15 00 54  0.0000000  0  6G 3G 6G17G21G23G26                              
  23988569.997   165515271.509        -476.895                                  
  22286192.469  1008443337.534         691.038                                  
  20328584.290   -82369594.014          50.866                                  
  23928156.517  -541882986.019        -396.215                                  
  21252812.410   135269006.027        -118.559                                  
  21538232.943  -339660799.186         393.203                                  
 00 04 15 00 54 20.0000000  0  6G 3G 6G17G21G23G26                              
  23979054.576   165465269.403        -470.105                                  
  22300018.455  1008515993.678         697.322                                  
  20329621.637   -82364142.008          58.215                                  
  23920244.534  -541924562.891        -389.989                                  
  21250451.766   135256603.357        -112.842                                  
  21546119.621  -339619355.879         400.720                                  
 00 04 15 00 54 40.0000000  0  6G 3G 6G17G21G23G26                              
  23969664.229   165415925.156        -472.904                                  
  22313973.016  1008589323.732         694.233                                  
  20330800.412   -82357949.715          55.540                                  
  23912453.398  -541965505.094        -393.527                                  
  21248218.766   135244868.024        -114.477                                  
  21554160.471  -339577099.374         399.074                                  
 00 04 15 00 55  0.0000000  0  6G 3G 6G17G21G23G26                              
  23960225.575   165366324.713        -473.845                                  
  22327868.271  1008662343.309         692.926                                  
  20331927.474   -82352027.203          54.354                                  
  23904592.790  -542006811.478        -395.359                                  
  21245932.872   135232856.341        -115.680                                  
  21562170.410  -339535007.852         399.264                                  
 00 04 15 00 55 20.0000000  0  6G 3G 6G17G21G23G26                              
  23950772.572   165316651.207        -485.562                                  
  22341743.121  1008735254.586         680.902                                  
  20333031.014   -82346228.207          42.477                                  
  23896697.215  -542048300.801        -408.127                                  
  21243626.337   135220734.705        -128.526                                  
  21570180.970  -339492910.205         388.193                                  
 00 04 15 00 55 40.0000000  0  6G 3G 6G17G21G23G26                              
  23941076.077   165265695.165        -475.126                                  
  22355368.768  1008806857.827         690.673                                  
  20333891.968   -82341701.508          52.434                                  
  23888542.064  -542091155.748        -398.964                                  
  21241075.553   135207331.160        -118.106                                  
  21577970.631  -339451978.396         399.096                                  
 00 04 15 00 56  0.0000000  0  6G 3G 6G17G21G23G26                              
  23931581.744   165215803.369        -479.920                                  
  22369187.171  1008879472.180         685.713                                  
  20334954.768   -82336117.392          48.326                                  
  23880569.758  -542133051.903        -404.368                                  
  21238722.081   135194963.765        -122.665                                  
  21585979.958  -339409887.461         396.350                                  
 00 04 15 00 56 20.0000000  0  6G 3G 6G17G21G23G26                              
  23922001.999   165165462.781        -471.534                                  
  22382916.746  1008951621.742         693.252                                  
  20335929.334   -82330995.274          56.119                                  
  23872493.829  -542175488.670        -396.891                                  
  21236278.154   135182121.727        -115.005                                  
  21593926.593  -339368126.700         405.232                                  
 00 04 15 00 56 40.0000000  0  6G 3G 6G17G21G23G26                              
  23912578.017   165115939.911        -464.872                                  
  22396805.874  1009024608.179         700.914                                  
  20337062.140   -82325042.227          62.613                                  
  23864567.185  -542217140.969        -389.908                                  
  21233987.886   135170084.642        -108.082                                  
  21602046.407  -339325457.252         412.461                                  
 00 04 15 00 57  0.0000000  0  6G 3G 6G17G21G23G26                              
  23903304.182   165067206.641        -465.583                                  
  22410840.271  1009098358.068         699.551                                  
  20338338.486   -82318337.166          61.136                                  
  23856769.904  -542258116.947        -392.990                                  
  21231844.722   135158823.471        -109.730                                  
  21610334.171  -339281906.622         412.275                                  
 00 04 15 00 57 20.0000000  0  6G 3G 6G17G21G23G26                              
  23893993.167   165018278.323        -459.427                                  
  22424845.024  1009171955.270         707.117                                  
  20339580.468   -82311807.056          68.292                                  
  23848916.526  -542299386.375        -386.672                                  
  21229662.541   135147356.390        -102.927                                  
  21618604.011  -339238448.133         420.466                                  
 00 04 15 00 57 40.0000000  0  6G 3G 6G17G21G23G26                              
  23884826.717   164970109.212        -457.528                                  
  22439000.121  1009246339.071         709.192                                  
  20340974.014   -82304485.848          71.252                                  
  23841194.704  -542339964.884        -385.279                                  
  21227624.442   135136646.262        -100.958                                  
  21627039.829  -339194118.562         423.450                                  
 00 04 15 00 58  0.0000000  0  6G 3G 6G17G21G23G26                              
  23875700.454   164922151.026        -461.873                                  
  22453190.830  1009320911.710         704.520                                  
  20342409.724   -82296941.594          66.841                                  
  23833496.808  -542380413.841        -390.484                                  
  21225620.895   135126118.367        -105.744                                  
  21635532.339  -339149489.300         420.549                                  
 00 04 15 00 58 20.0000000  0  6G 3G 6G17G21G23G26                              
  23866490.379   164873754.204        -446.816                                  
  22467298.098  1009395041.866         718.878                                  
  20343756.983   -82289860.786          80.527                                  
  23825702.044  -542421375.076        -376.548                                  
  21223528.368   135115121.687         -90.994                                  
  21643964.232  -339105180.938         435.941                                  
 00 04 15 00 58 40.0000000  0  6G 3G 6G17G21G23G26                              
  23857567.583   164826865.030        -446.127                                  
  22481689.819  1009470670.652         718.956                                  
  20345394.680   -82281255.744          80.763                                  
  23818176.332  -542460922.943        -376.793                                  
  21221721.261   135105627.643         -90.884                                  
  21652703.936  -339059252.023         437.075                                  
 00 04 15 00 59  0.0000000  0  6G 3G 6G17G21G23G26                              
  23848649.977   164780003.675        -454.666                                  
  22496086.080  1009546323.777         710.208                                  
  20347037.430   -82272621.513          73.142                                  
  23810639.032  -542500529.849        -386.279                                  
  21219912.733   135096120.200         -99.618                                  
  21661464.995  -339013213.179         429.758                                  
 00 04 15 00 59 20.0000000  0  6G 3G 6G17G21G23G26                              
  23839569.924   164732289.891        -439.292                                  
  22510305.522  1009621047.411         725.774                                  
  20348519.220   -82264834.394          89.372                                  
  23802919.303  -542541095.864        -371.382                                  
  21217934.183   135085724.424         -84.259                                  
  21670078.293  -338967949.427         445.822                                  
 00 04 15 00 59 40.0000000  0  6G 3G 6G17G21G23G26                              
  23830799.903   164686202.957        -447.282                                  
  22524824.795  1009697343.923         717.010                                  
  20350315.196   -82255397.783          81.082                                  
  23795492.534  -542580124.581        -380.777                                  
  21216258.955   135076922.555         -92.579                                  
  21679014.459  -338920990.765         439.277                                  
 00 04 15 01 00  0.0000000  0  6G 3G 6G17G21G23G26                              
  23821870.361   164639277.503        -440.071                                  
  22539174.649  1009772751.963         723.681                                  
  20351951.293   -82246799.630          88.471                                  
  23787889.967  -542620074.926        -373.958                                  
  21214420.282   135067259.501         -85.308                                  
  21687811.380  -338874762.432         447.215                                  
