     2              OBSERVATION DATA    M                   RINEX VERSION / TYPE
LEICA GEO OFFICE 6.0                    1-5-12 11:46        PGM / RUN BY / DATE
                                                            OBSERVER / AGENCY
SYDN                                                        MARKER NAME
SYDN                                                        MARKER NUMBER
AGE3MU07TA8         JPSE_GGD            2.3p3               REC # / TYPE / VERS
CR519994908         ASH701945C_M    NONE                    ANT # / TYPE
 -4648240.3900  2560636.5470 -3526318.5890                  APPROX POSITION XYZ
        0.0300        0.0000        0.0000                  ANTENNA: DELTA H/E/N
     1     1                                                WAVELENGTH FACT L1/2
     5    C1    P1    L1    P2    L2                        # / TYPES OF OBSERV
  2012     1     1    17     0    0.000000                  TIME OF FIRST OBS
  2012     1     1    17    59   30.000000                  TIME OF LAST OBS
    15                                                      LEAP SECONDS
    21                                                      # OF SATELLITES
          C1    P1    L1    P2    L2                        COMMENT
   G 1    35    35    35    35    35                        PRN / # OF OBS
   G 2     0     0     0     0     0                        PRN / # OF OBS
   G 3   120   120   120   120   120                        PRN / # OF OBS
   G 4     0     0     0     0     0                        PRN / # OF OBS
   G 5     0     0     0     0     0                        PRN / # OF OBS
   G 6   120   120   120   120   120                        PRN / # OF OBS
   G 7     0     0     0     0     0                        PRN / # OF OBS
   G 8     0     0     0     0     0                        PRN / # OF OBS
   G 9    83    73    73    73    73                        PRN / # OF OBS
   G10     0     0     0     0     0                        PRN / # OF OBS
   G11   120   120   120   120   120                        PRN / # OF OBS
   G12     0     0     0     0     0                        PRN / # OF OBS
   G13     0     0     0     0     0                        PRN / # OF OBS
   G14   120   120   120   120   120                        PRN / # OF OBS
   G15     0     0     0     0     0                        PRN / # OF OBS
   G16     0     0     0     0     0                        PRN / # OF OBS
   G17     0     0     0     0     0                        PRN / # OF OBS
   G18   120   120   120   120   120                        PRN / # OF OBS
   G19   120   120   120   120   120                        PRN / # OF OBS
   G20     0     0     0     0     0                        PRN / # OF OBS
   G21    38    23    23    23    23                        PRN / # OF OBS
   G22   120   120   120   120   120                        PRN / # OF OBS
   G23     0     0     0     0     0                        PRN / # OF OBS
   G24     0     0     0     0     0                        PRN / # OF OBS
   G25     0     0     0     0     0                        PRN / # OF OBS
   G26     0     0     0     0     0                        PRN / # OF OBS
   G27     0     0     0     0     0                        PRN / # OF OBS
   G28     0     0     0     0     0                        PRN / # OF OBS
   G29     0     0     0     0     0                        PRN / # OF OBS
   G30     0     0     0     0     0                        PRN / # OF OBS
   G31   117    90    90    91    91                        PRN / # OF OBS
   G32    95    54    54    55    55                        PRN / # OF OBS
   R 1     0     0     0     0     0                        PRN / # OF OBS
   R 2   120   120   120   120   120                        PRN / # OF OBS
   R 3   120   120   120   120   120                        PRN / # OF OBS
   R 4    68    68    68    68    68                        PRN / # OF OBS
   R 5     0     0     0     0     0                        PRN / # OF OBS
   R 6     0     0     0     0     0                        PRN / # OF OBS
   R 7     0     0     0     0     0                        PRN / # OF OBS
   R 8     0     0     0     0     0                        PRN / # OF OBS
   R 9     0     0     0     0     0                        PRN / # OF OBS
   R10     0     0     0     0     0                        PRN / # OF OBS
   R11     0     0     0     0     0                        PRN / # OF OBS
   R12   120   120   120   120   120                        PRN / # OF OBS
   R13   105   105   105   105   105                        PRN / # OF OBS
   R14    26    26    26    26    26                        PRN / # OF OBS
   R15     0     0     0     0     0                        PRN / # OF OBS
   R16     0     0     0     0     0                        PRN / # OF OBS
   R17   119   119   119   119   119                        PRN / # OF OBS
   R18   120   120   120   120   120                        PRN / # OF OBS
   R19   120   120   120   120   120                        PRN / # OF OBS
   R20     0     0     0     0     0                        PRN / # OF OBS
   R21     0     0     0     0     0                        PRN / # OF OBS
   R22     0     0     0     0     0                        PRN / # OF OBS
   R23     0     0     0     0     0                        PRN / # OF OBS
   R24     0     0     0     0     0                        PRN / # OF OBS
                                                            END OF HEADER
 12  1  1 17  0  0.0000000  0 15G19R18G18G 9G11G21R19R 2G 3R 3G22G14
                                R12G 6R17
  22201902.863    22201902.306   116671818.54541  22201905.919    90913125.24341
  20166256.353    20166256.260   107648877.68541  20166265.770    83726933.79541
  22699732.513    22699731.963   119287997.98241  22699736.209    92951712.72041
  24382010.599    24382011.512   128128352.11541  24382017.842    99840290.99741
  25098589.810    25098593.095   131894001.14841  25098595.674   102774547.87941
  23673522.450    23673522.350   124405264.69641  23673527.535    96939187.40641
  23371549.299    23371548.947   125022052.31141  23371555.773    97239395.78441
  21124508.723    21124507.818   112724527.92341  21124516.143    87674694.48641
  22154110.073    22154109.590   116420674.58541  22154115.580    90717404.28341
  20402851.579    20402851.188   109218103.58041  20402858.087    84947450.42141
  20546685.243    20546684.574   107973638.98641  20546686.930    84135304.95941
  20110316.604    20110316.453   105680536.66141  20110320.326    82348501.44141
  22097699.690    22097699.170   118041984.18441  22097709.699    91810463.28741
  22240040.758    22240040.418   116872237.06341  22240044.872    91069288.40141
  20869971.808    20869971.337   111679459.96241  20869979.077    86861837.59341
 12  1  1 17  0 30.0000000  0 15G19R18G18G 9G11G21R19R 2G 3R 3G22G14
                                R12G 6R17
  22197954.962    22197953.453   116651066.42841  22197956.401    90896954.76941
  20163710.674    20163709.939   107635284.33841  20163718.909    83716361.19741
  22713590.319    22713589.509   119360822.95941  22713594.055    93008459.44641
  24390539.415    24390539.155   128173164.49041  24390545.393    99875209.74341
  25079844.635    25079844.832   131795489.88641  25079847.619   102697785.88141
  23691408.879    23691407.646   124499252.88041  23691411.922    97012424.90441
  23351505.692    23351504.360   124914825.19941  23351510.744    97155996.96641
  21134802.677    21134801.836   112779458.43841  21134809.826    87717418.21441
  22162482.933    22162481.167   116464664.89841  22162486.335    90751682.42341
  20400412.791    20400412.677   109205046.73641  20400418.872    84937295.10941
  20549750.633    20549749.738   107989746.52241  20549752.107    84147856.28841
  20105123.727    20105123.171   105653245.58341  20105126.852    82327235.68941
  22091507.766    22091506.048   118008899.80641  22091515.882    91784731.00641
  22254212.600    22254212.044   116946710.35741  22254217.556    91127319.51941
  20889486.301    20889486.616   111783889.08541  20889494.550    86943060.22641
 12  1  1 17  1  0.0000000  0 16G19R18G18G 9G11G21R19R 2G 3R 3G22R13
                                G14R12G 6R17
  22194118.020    22194116.472   116630906.38141  22194119.770    90881245.64841
  20161320.123    20161319.294   107622524.29941  20161328.662    83706436.72841
  22727461.502    22727460.576   119433719.30541  22727466.475    93065261.80241
  24399151.592    24399151.698   128218426.70141  24399158.988    99910478.99141
  25061110.856    25061109.708   131697037.72841  25061114.446   102621069.96541
  23709323.811    23709325.136   124593414.08541  23709332.139    97085797.22141
  23331535.735    23331535.944   124808008.14241  23331543.059    97072917.05041
  21145111.050    21145110.182   112834466.87241  21145118.180    87760202.55241
  22170929.967    22170929.277   116509059.46241  22170934.731    90786275.57541
  20398012.420    20398012.571   109192202.24941  20398019.609    84927304.96341
  20552856.047    20552855.217   108006064.43241  20552857.356    84160571.54741
  22874755.764    22874758.899   122149945.91841  22874770.847    95005551.83641
  20100036.388    20100035.792   105626513.57241  20100039.943    82306405.57041
  22085442.779    22085441.964   117976509.26241  22085453.463    91759538.41341
  22268447.217    22268446.575   117021518.24441  22268453.741    91185611.35941
  20909089.871    20909089.251   111888787.43241  20909096.938    87024647.80141
 12  1  1 17  1 30.0000000  0 17G19R18G18G 9G11G21R19R 2G 3R 3G22R13
                                G14R12G31G 6R17
  22190392.694    22190393.136   116611339.28341  22190396.973    90865998.57241
  20159085.376    20159085.197   107610598.63341  20159094.604    83697161.21541
  22741348.271    22741347.581   119506686.83841  22741351.601    93122119.61541
  24407850.118    24407850.496   128264137.72841  24407856.601    99946097.95241
  25042387.710    25042387.017   131598646.68041  25042392.498   102544401.65541
  23727278.164    23727276.750   124687747.02341  23727283.413    97159303.33241
  23311645.992    23311644.563   124701605.70141  23311651.779    96990159.61541
  21155432.901    21155432.531   112889553.06541  21155441.536    87803047.36941
  22179453.693    22179453.422   116553856.41341  22179459.735    90821182.27241
  20395652.591    20395652.612   109179569.37341  20395659.506    84917479.41041
  20556000.945    20556000.099   108022592.88841  20556002.778    84173450.86341
  22854295.754    22854297.184   122040679.21341  22854305.693    94920566.65841
  20095056.181    20095055.758   105600340.94541  20095059.626    82286011.34441
  22079509.199    22079509.035   117944815.70041  22079519.522    91734887.90741
  25146829.727           0.000           0.00000         0.000           0.00000
  22282745.501    22282745.834   117096658.17541  22282751.753    91244161.93641
  20928778.450    20928779.108   111994150.91541  20928786.777    87106597.16641
 12  1  1 17  2  0.0000000  0 16G19R18G18G 9G11G21R19R 2G 3R 3G22G14
                                R12G31G 6R17
  22186783.560    22186782.124   116592365.30641  22186785.804    90851213.66341
  20157008.464    20157007.703   107599506.58841  20157016.676    83688534.07641
  22755245.683    22755245.486   119579725.26841  22755249.713    93179032.67041
  24416634.706    24416634.138   128310296.36841  24416638.881    99982065.73041
  25023675.810    25023676.084   131500318.70641  25023677.960   102467782.41541
  23745261.921    23745260.836   124782250.69641  23745264.987    97232942.55341
  23291832.491    23291831.473   124595621.45441  23291839.329    96907727.37541
  21165770.973    21165770.382   112944715.68641  21165778.617    87845951.62241
  22188054.482    22188054.569   116599053.12541  22188059.271    90856400.49141
  20393331.975    20393331.928   109167147.00241  20393338.228    84907817.56941
  20559186.692    20559185.396   108039331.12741  20559188.023    84186493.64141
  20090181.849    20090181.286   105574727.80841  20090185.453    82266053.08041
  22073707.416    22073706.582   117913821.10941  22073717.092    91710781.00241
  25127487.774           0.000           0.00000         0.000           0.00000
  22297107.771    22297107.262   117172126.77041  22297112.146    91302968.60941
  20948555.315    20948555.235   112099975.29441  20948563.518    87188905.00241
 12  1  1 17  2 30.0000000  0 16G19R18G18G 9G11G21R19R 2G 3R 3G22G14
                                R12G31G 6R17
  22183285.832    22183284.936   116573984.61341  22183288.298    90836891.06141
  20155086.042    20155085.884   107589250.36841  20155095.607    83680557.01541
  22769157.568    22769157.120   119652834.08441  22769162.061    93236000.55141
  24425503.231    24425502.797   128356901.33541  24425508.637   100018381.27041
  25004978.059    25004975.257   131402055.68341  25004981.261   102391213.79941
  23763278.304    23763275.957   124876923.71141  23763281.201    97306713.68141
  23272099.065    23272097.550   124490059.63241  23272106.549    96825623.74341
  21176122.226    21176121.763   112999953.85641  21176130.166    87888914.64941
  22196730.782    22196730.000   116644647.66841  22196737.248    90891928.69041
  20391050.751    20391050.560   109154934.02041  20391057.856    84898318.60041
  20562411.403    20562410.551   108056278.71841  20562412.837    84199699.55041
  20085414.585    20085414.137   105549673.97041  20085417.967    82246530.63041
  22068035.570    22068035.680   117883527.98241  22068047.264    91687219.74141
  25108106.883           0.000           0.00000         0.000           0.00000
  22311530.331    22311530.162   117247920.91541  22311536.049    91362028.96341
  20968416.016    20968415.829   112206255.90441  20968424.311    87271567.65041
 12  1  1 17  3  0.0000000  0 16G19R18G18G 9G11G21R19R 2G 3R 3G22G14
                                R12G31G 6R17
  22179901.236    22179900.554   116556198.07541  22179903.497    90823031.43441
  20153322.458    20153322.073   107579830.27841  20153330.586    83673230.27941
  22783083.834    22783083.133   119726012.96641  22783087.698    93293023.03141
  24434455.963    24434454.997   128403951.81241  24434461.946   100055043.96041
  24986291.674    24986289.150   131303859.94841  24986291.860   102314697.64041
  23781323.714    23781322.362   124971765.30541  23781330.834    97380616.13941
  23252446.052    23252444.804   124384924.06741  23252451.606    96743851.62241
  21186488.576    21186488.030   113055267.46841  21186495.550    87931936.33741
  22205482.887    22205482.089   116690637.37341  22205488.755    90927764.80041
  20388808.314    20388808.100   109142929.56741  20388814.680    84888981.80341
  20565676.009    20565675.393   108073435.83941  20565677.718    84213068.73141
  20080752.925    20080752.523   105525179.65141  20080756.799    82227444.17741
  22062497.272    22062496.403   117853938.95241  22062506.125    91664206.06041
  25088710.924           0.000           0.00000         0.000           0.00000
  22326015.253    22326014.470   117324037.66841  22326021.145    91421340.67941
  20988361.962    20988361.839   112312988.94241  20988368.758    87354582.22741
 12  1  1 17  3 30.0000000  0 16G19R18G18G 9G11G21R19R 2G 3R 3G22G14
                                R12G31G 6R17
  22176630.106    22176628.800   116539005.94641  22176632.145    90809634.98141
  20151713.936    20151713.180   107571245.43641  20151722.420    83666553.18141
  22797022.486    22797022.340   119799261.55641  22797026.339    93350099.84741
  24443493.511    24443494.222   128451446.20241  24443499.771   100092052.59541
  24967617.312    24967617.416   131205733.36541  24967622.721   102238235.35541
  23799401.773    23799403.254   125066773.92341  23799408.710    97454648.75041
  23232873.750    23232870.723   124280218.92441  23232877.950    96662414.23941
  21196868.065    21196867.117   113110655.38241  21196876.474    87975015.83141
  22214308.538    22214308.803   116737020.23141  22214314.434    90963907.25841
  20386604.551    20386604.320   109131132.71841  20386611.556    84879806.48441
  20568981.217    20568980.106   108090801.85941  20568982.267    84226600.69041
  20076198.704    20076198.228   105501244.71141  20076201.911    82208793.59441
  22057091.050    22057089.778   117825056.48241  22057100.710    91641741.93341
  25069284.982           0.000           0.00000         0.000           0.00000
  22340561.057    22340560.461   117400474.02641  22340565.740    91480901.47041
  21008390.946    21008390.989   112420169.87441  21008398.579    87437945.16441
 12  1  1 17  4  0.0000000  0 16G19R18G18G 9G11G21R19R 2G 3R 3G22G14
                                R12G31G 6R17
  22173471.482    22173470.630   116522407.92441  22173473.316    90796701.46041
  20150262.489    20150261.874   107563497.13041  20150270.830    83660526.71441
  22810974.969    22810973.813   119872579.08741  22810978.472    93407230.35441
  24452617.418    24452616.248   128499383.06141  24452621.870   100129405.95841
  24948957.313    24948955.513   131107677.71241  24948962.747   102161828.30741
  23817518.124    23817515.821   125161947.92541  23817520.840    97528810.32841
  23213381.203    23213380.250   124175947.87841  23213386.716    96581314.46341
  21207262.111    21207260.756   113166116.50441  21207269.921    88018152.25841
  22223209.977    22223209.382   116783793.86641  22223215.505    91000354.25741
  20384440.213    20384439.373   109119541.85741  20384446.378    84870791.37141
  20572325.496    20572324.377   108108376.29841  20572326.902    84240295.05441
  20071750.385    20071749.895   105477868.76341  20071753.787    82190578.59441
  22051816.657    22051815.535   117796882.17941  22051825.363    91619828.58841
  25049827.881           0.000           0.00000         0.000           0.00000
  22355167.140    22355165.852   117477226.44241  22355170.556    91540708.53841
  21028502.766    21028503.120   112527793.92341  21028511.120    87521652.73941
 12  1  1 17  4 30.0000000  0 16G19R18G18G 9G11G21R19R 2G 3R 3G22G14
                                R12G31G 6R17
  22170425.335    22170424.582   116506404.82741  22170428.789    90784231.52441
  20148967.612    20148967.373   107556585.42441  20148976.249    83655150.94341
  22824938.932    22824938.606   119945965.62741  22824943.821    93464414.64041
  24461820.225    24461821.171   128547761.45141  24461827.545   100167103.39441
  24930310.375    24930311.559   131009694.77641  24930313.987   102085477.95241
  23835658.368    23835658.816   125257286.39141  23835662.885    97603099.96941
  23193966.560    23193967.498   124072115.11841  23193976.497    96500555.58641
  21217668.888    21217667.498   113221650.34841  21217676.220    88061345.23741
  22232185.957    22232184.445   116830955.90741  22232190.060    91037103.86041
  20382312.256    20382312.420   109108156.41241  20382318.804    84861936.02841
  20575709.223    20575708.320   108126158.99441  20575710.392    84254151.70641
  20067408.492    20067407.935   105455052.09941  20067411.815    82172799.39641
  22046674.716    22046673.916   117769418.70541  22046685.234    91598468.14241
  25030345.995           0.000           0.00000         0.000           0.00000
  22369831.429    22369831.223   117554292.06041  22369836.701    91600759.64541
  21048697.428    21048696.980   112635857.00341  21048705.414    87605701.77641
 12  1  1 17  5  0.0000000  0 16G19R18G18G 9G11G21R19R 2G 3R 3G22G14
                                R12G31G 6R17
  22167493.583    22167492.523   116490996.72941  22167496.312    90772225.21841
  20147830.904    20147830.016   107550511.26941  20147838.646    83650426.57841
  22838917.239    22838916.735   120019420.97541  22838921.361    93521652.55541
  24471113.208    24471113.024   128596579.88841  24471118.106   100205143.75341
  24911680.307    24911679.934   130911787.09341  24911684.588   102009186.26841
  23853830.988    23853831.816   125352787.91141  23853836.897    97677516.67141
  23174642.089    23174640.604   123968724.60741  23174648.037    96420140.69941
  21228089.497    21228088.595   113277256.45341  21228096.415    88104594.42241
  22241232.965    22241232.393   116878504.04441  22241237.640    91074154.37241
  20380223.943    20380223.730   109096975.50341  20380230.872    84853239.77441
  20579132.499    20579131.648   108144150.05541  20579134.249    84268170.72541
  20063172.556    20063172.243   105432794.79541  20063176.319    82155456.07341
  22041666.460    22041666.409   117742668.65241  22041676.481    91577662.57041
  25010840.853           0.000           0.00000         0.000           0.00000
  22384554.741    22384554.321   117631668.05441  22384560.646    91661052.59841
  21068972.480    21068972.462   112744354.97541  21068980.801    87690089.07241
 12  1  1 17  5 30.0000000  0 16G19R18G18G 9G11G21R19R 2G 3R 3G22G14
                                R12G31G 6R17
  22164675.243    22164674.219   116476183.71341  22164676.853    90760682.61241
  20146848.096    20146847.739   107545273.01141  20146856.778    83646352.38141
  22852909.881    22852908.737   120092944.63541  22852913.234    93578943.67141
  24480483.972    24480484.694   128645836.96641  24480491.729   100243525.90741
  24893066.660    24893065.464   130813956.48341  24893067.865   101932954.62841
  23872037.068    23872033.650   125448451.16141  23872040.393    97752059.43441
  23155398.094    23155396.455   123865780.19141  23155403.240    96340072.76841
  21238523.248    21238522.736   113332933.69441  21238531.308    88147898.95541
  22250351.034    22250352.724   116926435.69541  22250359.057    91111503.69441
  20378172.823    20378172.910   109085997.91941  20378179.681    84844701.65641
  20582595.381    20582594.566   108162348.77941  20582597.377    84282351.54641
  20059044.033    20059043.345   105411096.48441  20059047.251    82138548.31741
  22036792.759    22036792.475   117716633.74141  22036803.024    91557413.22641
  24991313.692           0.000           0.00000         0.000           0.00000
  22399338.159    22399337.349   117709350.84441  22399342.548    91721584.63941
  21089327.998    21089328.071   112853283.27241  21089336.806    87774811.06841
 12  1  1 17  6  0.0000000  0 17G19R18G18G 9G11G21R19R 2G 3R 3G22R13
                                G14R12G31G 6R17
  22161969.148    22161968.329   116461966.37941  22161971.876    90749604.17841
  20146024.427    20146023.694   107540872.65641  20146032.585    83642929.86041
  22866912.421    22866911.102   120166536.13841  22866916.774    93636287.68041
  24489940.297    24489941.035   128695531.53641  24489946.647   100282248.94741
  24874466.635    24874463.277   130716205.11741  24874468.000   101856784.71541
  23890270.628    23890269.608   125544275.22641  23890275.575    97826727.39341
  23136238.516    23136236.632   123763286.08841  23136244.699    96260355.10741
  21248970.225    21248969.315   113388681.69441  21248977.634    88191258.50241
  22259546.477    22259546.586   116974748.87641  22259552.221    91149150.29841
  20376160.446    20376159.972   109075222.82941  20376166.616    84836321.04041
  20586098.416    20586097.513   108180755.04541  20586100.076    84296694.08841
  22671779.564    22671777.485   121066039.64641  22671788.128    94162504.52741
  20055021.488    20055020.865   105389957.09541  20055024.643    82122076.08941
  22032053.550    22032053.369   117691316.45041  22032064.258    91537722.01241
  24971754.474           0.000           0.00000         0.000           0.00000
  22414177.561    22414177.144   117787337.52241  22414184.512    91782353.44141
  21109764.448    21109764.247   112962637.61541  21109772.614    87859864.42141
 12  1  1 17  6 30.0000000  0 17G19R18G18G 9G11G21R19R 2G 3R 3G22R13
                                G14R12G31G 6R17
  22159377.413    22159376.309   116448344.26441  22159379.732    90738989.54841
  20145356.421    20145355.915   107537309.26641  20145365.493    83640158.33241
  22880929.609    22880928.934   120240195.18241  22880933.508    93693684.30041
  24499481.475    24499481.375   128745662.19741  24499487.745   100321311.85341
  24855879.846    24855878.419   130618534.67641  24855881.015   101780677.92441
  23908536.356    23908535.145   125640258.44841  23908538.295    97901519.43241
  23117162.114    23117161.415   123661245.87641  23117167.208    96180990.45641
  21259430.753    21259430.085   113444499.44041  21259437.327    88234672.30641
  22268813.657    22268813.156   117023440.97841  22268818.411    91187092.18441
  20374184.051    20374184.474   109064648.96941  20374191.150    84828096.93541
  20589640.466    20589639.514   108199368.24741  20589641.932    84311197.88741
  22651695.357    22651694.661   120958804.27141  22651703.410    94079099.34141
  20051104.420    20051104.343   105369376.47741  20051108.256    82106039.26541
  22027448.712    22027447.808   117666718.69441  22027458.844    91518590.43641
  24952174.419           0.000           0.00000         0.000           0.00000
  22429075.888    22429075.668   117865624.75341  22429081.758    91843356.45041
  21130277.931    21130278.287   113072413.38141  21130286.717    87945245.53241
 12  1  1 17  7  0.0000000  0 17G19R18G18G 9G11G21R19R 2G 3R 3G22R13
                                G14R12G31G 6R17
  22156898.013    22156897.344   116435317.78741  22156900.663    90728839.06541
  20144846.078    20144845.582   107534583.77141  20144854.457    83638038.47841
  22894958.351    22894958.667   120313921.26841  22894963.107    93751133.19341
  24509106.674    24509104.145   128796227.52341  24509109.333   100360713.38041
  24837308.498    24837308.679   130520947.25941  24837312.760   101704635.74741
  23926831.752    23926831.468   125736399.60741  23926832.528    97976434.58341
  23098172.072    23098171.370   123559663.72841  23098178.039    96101982.05841
  21269902.918    21269902.224   113500386.44441  21269910.605    88278139.97841
  22278150.031    22278150.277   117072509.58441  22278155.850    91225327.45041
  20372246.753    20372246.556   109054275.65741  20372253.202    84820028.80941
  20593221.650    20593220.847   108218188.59541  20593223.326    84325863.10241
  22631653.857    22631655.990   120851797.82141  22631664.642    93995872.27041
  20047294.548    20047294.160   105349354.18841  20047298.029    82090437.50441
  22022979.236    22022978.994   117642842.74141  22022989.585    91500020.27141
  24932571.740           0.000           0.00000         0.000           0.00000
  22444031.331    22444030.588   117944209.71741  22444035.414    91904591.51241
  21150870.767    21150870.461   113182606.30241  21150877.580    88030951.12241
 12  1  1 17  7 30.0000000  0 17G19R18G18G 9G11G21R19R 2G 3R 3G22R13
                                G14R12G31G 6R17
  22154531.884    22154531.778   116422887.33841  22154535.705    90719153.01241
  20144492.654    20144491.757   107532695.50141  20144500.690    83636569.81841
  22909000.828    22909001.028   120387714.40841  22909006.184    93808634.29941
  24518809.973    24518809.292   128847226.35641  24518814.796   100400452.75041
  24818753.846    24818753.820   130423445.29941  24818756.745   101628660.20341
  23945153.776    23945159.234   125832697.59741  23945161.807    98051471.94441
  23079270.166    23079267.465   123458543.43641  23079276.023    96023332.93841
  21280389.377    21280389.209   113556342.00841  21280397.676    88321660.95641
  22287559.549    22287558.911   117121952.49441  22287564.159    91263854.38041
  20370347.021    20370346.496   109044101.86941  20370353.095    84812115.87841
  20596842.276    20596841.396   108237215.76841  20596844.085    84340689.47241
  22611661.243    22611661.644   120745025.03841  22611669.943    93912826.82941
  20043591.093    20043590.407   105329890.00841  20043594.073    82075270.62941
  22018645.157    22018644.291   117619690.47541  22018654.516    91482012.94541
  24912945.064           0.000           0.00000         0.000           0.00000
  22459040.489    22459040.244   118023089.20141  22459046.162    91966055.96341
  21171539.909    21171540.070   113293212.16241  21171548.011    88116977.90541
 12  1  1 17  8  0.0000000  0 17G19R18G18G 9G11G21R19R 2G 3R 3G22R13
                                G14R12G31G 6R17
  22152280.453    22152279.957   116411052.40041  22152282.500    90709930.99341
  20144295.820    20144295.227   107531644.74941  20144303.533    83635752.55341
  22923057.038    22923056.163   120461574.17541  22923059.772    93866187.33241
  24528595.103    24528594.428   128898656.91941  24528600.837   100440528.53541
  24800216.799    24800215.797   130326030.40841  24800219.940   101552752.51141
  23963509.914    23963507.288   125929150.72941  23963510.562    98126630.23041
  23060452.521    23060451.661   123357888.74041  23060459.768    95945045.91441
  21290887.908    21290887.685   113612365.21541  21290896.104    88365234.57241
  22297038.832    22297038.146   117171767.07041  22297044.180    91302670.89441
  20368482.968    20368483.378   109034126.51641  20368489.511    84804357.28341
  20600502.366    20600501.345   108256449.05341  20600503.801    84355676.46041
  22591713.197    22591712.782   120638490.58641  22591719.491    93829966.82641
  20039992.857    20039992.600   105310984.03841  20039996.560    82060538.72641
  22014446.929    22014446.067   117597263.82441  22014457.720    91464570.02441
  24893293.114           0.000           0.00000         0.000           0.00000
  22474106.443    22474106.453   118102259.81441  22474111.433    92027747.33541
  21192285.539    21192285.557   113404226.24741  21192293.439    88203322.16241
 12  1  1 17  8 30.0000000  0 16G19R18G18G 9G11G21R19R 2G 3R 3G22G14
                                R12G31G 6R17
  22150142.337    22150140.993   116399813.38041  22150144.868    90701173.31841
  20144254.935    20144254.266   107531430.96441  20144264.625    83635586.26041
  22937123.623    22937123.572   120535500.17541  22937127.564    93923791.97441
  24538463.118    24538464.641   128950518.03641  24538469.209   100480939.76941
  24781694.616    24781694.698   130228704.87941  24781697.544   101476914.39241
  23981892.485    23981892.948   126025758.00041  23981898.484    98201908.58441
  23041723.334    23041722.987   123257703.86041  23041731.597    95867124.33641
  21301399.741    21301398.936   113668455.73141  21301407.223    88408860.52541
  22306588.347    22306587.730   117221951.00741  22306593.084    91341775.24741
  20366656.284    20366656.100   109024348.67141  20366663.416    84796752.30741
  20604201.713    20604200.621   108275888.38641  20604203.290    84370823.99741
  20036501.475    20036500.876   105292635.84141  20036504.749    82046241.45341
  22010384.647    22010384.806   117575565.07041  22010393.915    91447693.21341
  24873624.707           0.000           0.00000         0.000           0.00000
  22489227.465    22489226.380   118181718.51941  22489230.869    92089663.22441
  21213105.814    21213106.403   113515644.33541  21213114.709    88289980.65641
 12  1  1 17  9  0.0000000  0 16G19R18G18G 9G11G21R19R 2G 3R 3G22G14
                                R12G31G 6R17
  22148116.459    22148115.441   116389170.27241  22148118.762    90692879.97941
  20144372.316    20144371.960   107532054.06241  20144380.256    83636070.87341
  22951204.428    22951203.721   120609491.98441  22951208.214    93981447.88641
  24548415.718    24548415.971   129002808.18941  24548421.436   100521685.34641
  24763192.445    24763192.972   130131470.38741  24763194.878   101401147.23841
  24000306.135    24000306.768   126122518.23141  24000309.068    98277306.03141
  23023083.792    23023083.578   123157992.74741  23023090.430    95789571.22041
  21311923.142    21311922.419   113724612.75541  21311930.741    88452538.24041
  22316207.379    22316207.569   117272501.78641  22316214.178    91381165.45541
  20364866.235    20364866.136   109014767.25241  20364872.855    84789300.11041
  20607939.554    20607938.886   108295533.65541  20607941.581    84386132.00941
  20033116.098    20033115.541   105274845.07741  20033119.481    82032378.54141
  22006459.951    22006459.051   117554596.03241  22006469.309    91431383.99041
  24853927.857           0.000           0.00000         0.000           0.00000
  22504401.527    22504400.779   118261462.33641  22504406.596    92151801.23041
  21234001.743    21234001.903   113627461.91741  21234010.096    88376949.85441
 12  1  1 17  9 30.0000000  0 16G19R18G18G 9G11G21R19R 2G 3R 3G22G14
                                R12G31G 6R17
  22146205.067    22146204.204   116379122.86241  22146207.412    90685050.83241
  20144645.868    20144645.125   107533514.65041  20144654.741    83637206.87141
  22965296.590    22965296.605   120683549.51441  22965300.747    94039155.02041
  24558446.130    24558445.922   129055526.06541  24558452.246   100562764.18941
  24744708.212    24744706.393   130034329.41541  24744709.669   101325452.98241
  24018747.418    24018749.192   126219429.67641  24018753.473    98352821.40641
  23004533.905    23004533.500   123058758.95241  23004540.376    95712389.39641
  21322459.785    21322459.015   113780835.81141  21322467.550    88496267.26741
  22325895.590    22325895.920   117323416.54741  22325901.609    91420839.27641
  20363112.314    20363112.787   109005381.46541  20363119.469    84782000.05641
  20611717.761    20611716.697   108315384.26841  20611719.144    84401600.01741
  20029836.479    20029836.094   105257611.65941  20029839.834    82018949.92441
  22002672.050    22002670.932   117534358.45341  22002680.882    91415643.66441
  24834213.903           0.000           0.00000         0.000           0.00000
  22519628.555    22519628.934   118341487.90041  22519636.148    92214158.81841
  21254972.335    21254971.792   113739674.62241  21254980.248    88464226.40341
 12  1  1 17 10  0.0000000  0 17G19G32R18G18G 9G11G21R19R 2G 3R 3G22
                                G14R12G31G 6R17
  22144404.986    22144404.858   116369671.46041  22144408.243    90677686.10441
  25476454.920           0.000           0.00000         0.000           0.00000
  20145076.500    20145075.861   107535812.11841  20145084.032    83638993.77741
  22979402.749    22979402.295   120757672.48741  22979405.407    94096913.13841
  24568560.105    24568560.310   129108670.24641  24568566.129   100604175.25841
  24726238.507    24726238.618   129937283.76141  24726242.460   101249832.98341
  24037220.191    24037217.667   126316491.26841  24037224.210    98428453.83741
  22986071.329    22986071.313   122960006.61241  22986078.813    95635582.00841
  21333007.644    21333006.885   113837124.30641  21333015.563    88540047.20341
  22335654.513    22335653.882   117374693.40141  22335659.858    91460795.24741
  20361396.621    20361396.371   108996190.45041  20361403.264    84774851.51141
  20615534.557    20615533.200   108335440.41841  20615535.675    84417228.18941
  20026663.434    20026662.694   105240935.15141  20026666.507    82005955.25841
  21999019.009    21999018.445   117514854.41541  21999028.865    91400473.89441
  24814482.569           0.000           0.00000         0.000           0.00000
  22534911.142    22534911.061   118421792.22241  22534915.914    92276733.58841
  21276014.927    21276014.509   113852278.06641  21276023.039    88551806.83041
 12  1  1 17 10 30.0000000  0 17G19G32R18G18G 9G11G21R19R 2G 3R 3G22
                                G14R12G31G 6R17
  22142720.642    22142720.359   116360815.72241  22142723.527    90670785.53841
  25461596.133           0.000           0.00000         0.000           0.00000
  20145662.963    20145662.209   107538946.17441  20145672.196    83641431.36741
  22993520.304    22993519.104   120831860.19641  22993524.305    94154721.69841
  24578754.661    24578752.396   129162239.11341  24578759.795   100645917.21741
  24707790.476    24707790.786   129840335.63441  24707794.768   101174288.93941
  24055717.245    24055716.877   126413701.45541  24055720.219    98504201.91541
  22967701.795    22967700.399   122861739.44841  22967709.561    95559151.99741
  21343567.930    21343567.456   113893477.36741  21343575.336    88583877.35141
  22345479.396    22345479.146   117426329.73041  22345486.030    91501031.31441
  20359714.560    20359715.043   108987193.01941  20359721.548    84767853.52241
  20619389.582    20619388.714   108355701.50141  20619391.332    84433016.04841
  20023595.467    20023595.121   105224814.88741  20023598.947    81993394.03541
  21995505.882    21995505.413   117496085.26541  21995514.692    91385875.65141
  24794721.753           0.000           0.00000         0.000           0.00000
  22550245.405    22550245.789   118502371.73441  22550250.964    92339522.79341
  21297129.044    21297129.559   113965267.53941  21297137.430    88639687.50741
 12  1  1 17 11  0.0000000  0 18G19G32R18G18G 9G11G21R19R 2G 3R 3G22
                                R13G14R12G31G 6R17
  22141149.365    22141148.128   116352555.88941  22141151.554    90664349.31241
  25446732.160           0.000           0.00000         0.000           0.00000
  20146407.032    20146406.542   107542916.16141  20146415.532    83644519.12741
  23007650.256    23007649.391   120906112.93841  23007653.850    94212580.93741
  24589028.059    24589028.441   129216231.35841  24589032.695   100687989.09441
  24689361.247    24689360.882   129743487.21041  24689365.839   101098822.61241
  24074242.551    24074240.124   126511059.04641  24074247.372    98580064.90341
  22949422.545    22949422.482   122763961.53041  22949431.209    95483102.52941
  21354142.213    21354140.876   113949894.76341  21354148.849    88627757.53241
  22355375.304    22355374.516   117478323.42941  22355378.943    91541545.86541
  20358070.169    20358070.371   108978388.43841  20358076.700    84761005.53041
  20623284.709    20623283.327   108376167.60441  20623285.777    84448963.67141
  22472993.675    22472994.904   120004556.89841  22473006.695    93336895.37141
  20020633.918    20020633.237   105209250.71241  20020637.004    81981266.12141
  21992130.510    21992129.924   117478053.40441  21992141.603    91371850.89241
  24774943.137           0.000           0.00000         0.000           0.00000
  22565629.877    22565629.574   118583223.80241  22565636.556    92402524.37441
  21318316.452    21318315.626   114078639.01041  21318323.489    88727865.28241
 12  1  1 17 11 30.0000000  0 18G19G32R18G18G 9G11G21R19R 2G 3R 3G22
                                R13G14R12G31G 6R17
  22139691.768    22139689.927   116344891.55741  22139693.199    90658377.11141
  25431876.013           0.000           0.00000         0.000           0.00000
  20147307.556    20147306.818   107547721.84841  20147316.114    83648256.87441
  23021792.436    23021791.319   120980429.98441  23021795.172    94270490.30441
  24599382.601    24599380.227   129270645.45541  24599388.764   100730389.64941
  24670951.863    24670951.128   129646740.29741  24670955.412   101023435.42241
  24092796.017           0.000           0.00000         0.000           0.00000
  22931237.893    22931236.580   122666676.60941  22931244.488    95407436.50641
  21364725.983    21364725.468   114006375.79941  21364733.159    88671687.22141
  22365335.076    22365335.834   117530671.21441  22365341.086    91582336.32941
  20356461.962    20356461.541   108969775.82341  20356468.343    84754306.85241
  20627217.701    20627216.961   108396838.38141  20627219.190    84465070.78141
  22453380.172    22453379.460   119899821.48441  22453388.888    93255434.57741
  20017777.885    20017777.333   105194242.11841  20017781.206    81969571.12641
  21988894.841    21988893.073   117460760.17041  21988902.245    91358400.59641
  24755148.482           0.000           0.00000         0.000           0.00000
  22581066.773    22581066.571   118664344.93541  22581071.312    92465735.60741
  21339571.694    21339571.793   114192387.71641  21339579.945    88816336.47841
 12  1  1 17 12  0.0000000  0 18G19G32R18G18G 9G11G21R19R 2G 3R 3G22
                                R13G14R12G31G 6R17
  22138345.839    22138344.651   116337822.62441  22138347.931    90652868.86041
  25417019.297           0.000           0.00000         0.000           0.00000
  20148364.625    20148363.881   107553363.53641  20148372.617    83652644.84741
  23035947.958    23035946.750   121054811.25141  23035949.163    94328449.68241
  24609817.221    24609816.747   129325480.00441  24609823.851   100773117.90341
  24652559.729    24652559.936   129550097.24841  24652563.928   100948129.12341
  24111375.613           0.000           0.00000         0.000           0.00000
  22913144.071    22913143.220   122569888.49041  22913150.960    95332156.92141
  21375322.503    21375321.285   114062919.92741  21375329.383    88715665.97641
  22375364.683    22375364.589   117583371.13241  22375370.623    91623401.17741
  20354888.457    20354888.609   108961354.16641  20354895.014    84747756.68641
  20631189.963    20631188.897   108417713.37941  20631191.436    84481337.02241
  22433819.007    22433817.979   119795362.24941  22433827.219    93174188.61241
  20015027.045    20015026.542   105179789.01041  20015030.855    81958308.98041
  21985794.720    21985793.564   117444207.50941  21985804.601    91345526.31241
  24735334.496           0.000           0.00000         0.000           0.00000
  22596554.891    22596554.641   118745732.01941  22596560.656    92529154.13341
  21360899.288    21360898.960   114306509.36541  21360906.393    88905097.74141
 12  1  1 17 12 30.0000000  0 17G19G32R18G18G 9G11R19R 2G 3R 3G22R13
                                G14R12G31G 6R17
  22137113.536    22137112.727   116331348.77041  22137115.855    90647824.30541
  25402155.061           0.000           0.00000         0.000           0.00000
  20149577.530    20149577.027   107559839.85341  20149585.788    83657681.97341
  23050112.344    23050111.620   121129256.37841  23050116.473    94386458.82941
  24620331.591    24620332.391   129380733.20341  24620336.607   100816172.29941
  24634190.950    24634191.186   129453560.06741  24634194.172   100872905.27341
  22895145.014    22895144.382   122473600.77441  22895149.881    95257266.47041
  21385929.714    21385929.271   114119526.37941  21385938.059    88759693.21941
  22385460.303    22385459.953   117636420.45741  22385465.215    91664738.29741
  20353350.914    20353350.604   108953122.39441  20353357.390    84741354.21441
  20635201.396    20635200.358   108438792.42741  20635202.625    84497762.25741
  22414308.729    22414308.421   119691183.59841  22414318.485    93093160.87941
  20012382.852    20012382.340   105165890.62341  20012385.819    81947479.08241
  21982834.580    21982834.449   117428396.95441  21982843.968    91333229.23041
  24715500.980           0.000           0.00000         0.000           0.00000
  22612091.373    22612091.590   118827381.79441  22612098.151    92592777.29041
  21382293.264    21382293.651   114420999.30741  21382301.987    88994145.43641
 12  1  1 17 13  0.0000000  0 16G19R18G18G 9G11R19R 2G 3R 3G22R13G14
                                R12G31G 6R17
  22135995.197    22135993.685   116325470.31541  22135997.807    90643243.69541
  20150947.176    20150947.035   107567150.95441  20150955.571    83663368.37141
  23064291.391    23064290.391   121203765.28641  23064296.105    94444517.66841
  24630925.050    24630924.737   129436403.69541  24630930.237   100859551.88841
  24615840.782    24615840.405   129357130.85741  24615844.466   100797765.64541
  22877239.642    22877238.557   122377817.66741  22877244.648    95182768.54141
  21396548.496    21396548.394   114176194.75841  21396557.316    88803768.61241
  22395620.718    22395619.985   117689816.56841  22395625.534    91706345.63341
  20351847.467    20351847.848   108945079.90541  20351854.792    84735098.96241
  20639251.570    20639250.589   108460075.53241  20639253.016    84514346.49641
  22394853.933    22394852.710   119587290.34941  22394862.054    93012355.12741
  20009843.854    20009842.882   105152546.69241  20009846.679    81937081.22841
  21980013.933    21980013.503   117413330.05341  21980024.605    91321510.53141
  24695649.854           0.000           0.00000         0.000           0.00000
  22627680.103    22627679.617   118909291.25041  22627684.963    92656602.79641
  21403756.589    21403757.369   114535853.31041  21403765.551    89083476.30641
 12  1  1 17 13 30.0000000  0 17G19G32R18G18G 9G11R19R 2G 3R 3G22R13
                                G14R12G31G 6R17
  22134989.482    22134988.538   116320186.66641  22134992.404    90639126.56041
  25372447.578           0.000           0.00000         0.000           0.00000
  20152473.177    20152472.473   107575295.07441  20152481.805    83669702.68341
  23078481.552    23078481.733   121278337.25641  23078485.975    94502625.66641
  24641599.258    24641598.455   129492489.51741  24641604.403   100903255.12041
  24597512.145    24597511.613   129260811.55941  24597514.720   100722711.65841
  22859426.735    22859427.323   122282542.71341  22859433.946    95108665.83741
  21407179.964    21407179.659   114232924.49941  21407188.303    88847891.74241
  22405847.549    22405846.395   117743556.68941  22405851.949    91748221.02241
  20350381.745    20350381.214   108937225.62341  20350387.756    84728990.08941
  20643339.679    20643338.977   108481562.27841  20643341.673    84531089.42141
  22375450.016    22375450.257   119483686.75341  22375461.021    92931774.62341
  20007408.912    20007408.626   105139756.46541  20007412.656    81927114.82741
  21977332.866    21977332.589   117399008.38941  21977342.554    91310371.46341
  24675782.970           0.000           0.00000         0.000           0.00000
  22643314.419    22643314.706   118991457.06741  22643320.998    92720628.09741
  21425286.521    21425287.571   114651066.62641  21425295.258    89173086.62141
 12  1  1 17 14  0.0000000  0 17G19G32R18G18G 9G11R19R 2G 3R 3G22R13
                                G14R12G31G 6R17
  22134096.886    22134096.088   116315497.50841  22134099.462    90635472.67641
  25357592.009           0.000           0.00000         0.000           0.00000
  20154155.194    20154154.450   107584273.16241  20154163.376    83676685.63841
  23092685.191    23092683.612   121352972.48641  23092688.497    94560782.94741
  24652348.917    24652349.641   129548989.42441  24652355.904   100947281.00941
  24579203.280    24579201.179   129164604.65341  24579206.308   100647745.23041
  22841711.546    22841711.494   122187779.74641  22841719.130    95034961.34341
  21417824.181    21417823.330   114289715.53241  21417831.471    88892062.52041
  22416137.289    22416137.640   117797638.78541  22416144.048    91790362.87641
  20348948.665    20348948.328   108929558.75941  20348955.150    84723026.99241
  20647467.447    20647466.696   108503252.93941  20647469.271    84547991.23341
  22356105.653    22356103.745   119380378.02241  22356113.081    92851423.49341
  20005080.993    20005080.432   105127519.92941  20005084.277    81917579.88141
  21974791.958    21974791.442   117385433.74541  21974801.880    91299813.37841
  24655897.159           0.000           0.00000         0.000           0.00000
  22658998.340    22658998.828   119073876.16141  22659003.613    92784850.76641
  21446884.641    21446884.963   114766635.24141  21446891.990    89262973.28741
 12  1  1 17 14 30.0000000  0 17G19G32R18G18G 9G11R19R 2G 3R 3G22R13
                                G14R12G31G 6R17
  22133318.513    22133317.193   116311402.46441  22133320.232    90632281.73941
  25342738.935           0.000           0.00000         0.000           0.00000
  20155992.282    20155991.744   107594083.88041  20156001.031    83684316.19141
  23106898.231    23106897.955   121427670.74541  23106903.512    94618989.34241
  24663178.883    24663177.230   129605901.71441  24663185.628   100991628.23641
  24560918.748    24560916.822   129068512.29541  24560922.376   100572868.07741
  22824093.758    22824092.949   122093532.58641  22824101.125    94961658.00941
  21428477.583    21428476.705   114346566.82641  21428485.489    88936280.19241
  22426493.475    22426493.768   117852060.22841  22426499.720    91832769.15341
  20347551.220    20347550.967   108922078.49841  20347558.050    84717209.02841
  20651633.746    20651632.887   108525146.48941  20651635.540    84565051.14441
  22336815.699    22336814.052   119277368.57441  22336822.125    92771305.10841
  20002857.677    20002857.211   105115836.40241  20002860.718    81908475.84741
  21972390.650    21972390.404   117372607.51441  21972400.432    91289837.39941
  24635996.288           0.000           0.00040  24636003.946   100880301.66241
  22674730.991    22674730.537   119156545.25141  22674736.731    92849268.20841
  21468547.560    21468546.905   114882554.32541  21468554.817    89353132.53841
 12  1  1 17 15  0.0000000  0 17G19G32R18G18G 9G11R19R 2G 3R 3G22R13
                                G14R12G31G 6R17
  22132652.974    22132650.905   116307901.36641  22132654.484    90629553.60841
  25327887.985           0.000           0.00000         0.000           0.00000
  20157985.749    20157985.342   107604726.03841  20157994.678    83692593.42441
  23121126.527    23121125.080   121502431.53941  23121129.138    94677244.45241
  24674090.609    24674089.246   129663225.03341  24674094.370   101036295.71041
  24542653.528    24542655.341   128972536.26841  24542659.342   100498081.58341
  22806571.216    22806571.107   121999805.09741  22806579.496    94888758.88041
  21439142.412    21439141.717   114403477.95741  21439150.821    88980544.40041
  22436914.772    22436914.614   117906818.21941  22436919.347    91875437.68341
  20346188.595    20346188.471   108914783.84641  20346194.860    84711535.42841
  20655839.005    20655838.086   108547243.02241  20655839.912    84582269.22641
  22317581.202    22317580.261   119174663.30041  22317589.967    92691423.34841
  20000739.623    20000739.023   105104705.11441  20000742.666    81899802.12841
  21970129.076    21970128.522   117360531.02241  21970139.612    91280444.58641
  24616078.082    24616080.160   129358405.42741  24616085.017   100798743.95241
  22690509.577    22690508.530   119239461.19441  22690513.661    92913878.01441
  21490273.518    21490273.689   114998819.47441  21490281.454    89443560.95841
 12  1  1 17 15 30.0000000  0 17G19G32R18G18G 9G11R19R 2G 3R 3G22R13
                                G14R12G31G 6R17
  22132099.177    22132097.827   116304993.91141  22132100.729    90627288.05741
  25313036.482           0.000           0.00000         0.000           0.00000
  20160135.871    20160135.511   107616199.80441  20160144.521    83701517.45741
  23135363.905    23135363.651   121577254.51141  23135368.680    94735548.06841
  24685074.448    24685073.527   129720957.50041  24685079.659   101081282.03641
  24524411.113    24524413.013   128876678.62841  24524417.618   100423387.35141
  22789147.607    22789147.658   121906600.75941  22789155.926    94816266.64541
  21449819.291    21449818.041   114460448.57641  21449826.352    89024854.88341
  22447397.451    22447397.099   117961910.47041  22447403.145    91918366.69441
  20344860.414    20344860.250   108907673.86741  20344867.009    84706005.46041
  20660082.037    20660081.037   108569542.47641  20660083.546    84599645.42641
  22298405.447    22298404.447   119072266.79141  22298414.562    92611781.74041
  19998726.157    19998725.492   105094125.53741  19998729.306    81891558.31641
  21968009.882    21968009.678   117349205.44741  21968019.393    91271635.78641
  24596147.812    24596145.087   129253658.54541  24596151.039   100717123.24641
  22706333.307    22706332.940   119322620.66941  22706339.180    92978677.60041
  21512065.040    21512064.824   115115426.19441  21512072.159    89534255.03141
 12  1  1 17 16  0.0000000  0 17G19G32R18G18G 9G11R19R 2G 3R 3G22R13
                                G14R12G31G 6R17
  22131658.121    22131656.948   116302679.75841  22131660.687    90625484.81741
  25298183.181           0.000           0.00000         0.000           0.00000
  20162440.862    20162440.114   107628504.10041  20162448.869    83711087.46241
  23149613.836    23149612.647   121652139.68941  23149617.758    94793900.10841
  24696137.292    24696136.456   129779097.81241  24696143.632   101126586.18641
  24506196.380    24506194.889   128780941.78541  24506200.359   100348787.22041
  22771825.085    22771824.558   121813923.37841  22771830.089    94744184.25341
  21460506.440    21460505.673   114517478.12441  21460513.872    89069211.18041
  22457944.360    22457944.079   118017334.14941  22457950.695    91961553.95741
  20343566.636    20343566.577   108900747.79941  20343572.905    84700618.53641
  20664364.249    20664363.214   108592044.60541  20664365.747    84617179.54941
  22279287.476    22279287.671   118970183.93141  22279297.977    92532384.02841
  19996817.610    19996817.185   105084097.18441  19996820.872    81883744.02541
  21966030.580    21966030.173   117338632.64241  21966041.067    91263412.50441
  24576198.456    24576198.623   129148833.63341  24576203.561   100635441.68041
  22722203.749    22722203.127   119406020.68341  22722209.554    93043664.61941
  21533917.067    21533918.320   115232369.94141  21533926.259    89625211.23141
 12  1  1 17 16 30.0000000  0 17G19G32R18G18G 9G11R19R 2G 3R 3G22R13
                                G14R12G31G 6R17
  22131331.062    22131330.096   116300958.51941  22131332.674    90624143.59441
  25283333.337           0.000           0.00000         0.000           0.00000
  20164901.127    20164900.123   107641637.10141  20164909.007    83721302.01641
  23163876.908    23163875.765   121727086.39641  23163880.792    94852300.08841
  24707279.895    24707279.350   129837644.10541  24707285.546   101172206.67841
  24488000.798    24488001.366   128685327.71241  24488004.126   100274282.80841
  22754597.626    22754596.898   121721776.62141  22754604.785    94672514.59941
  21471204.403    21471203.566   114574566.26041  21471212.743    89113613.05541
  22468554.903    22468554.482   118073086.58441  22468559.837    92004997.40441
  20342307.031    20342306.769   108894004.58441  20342313.362    84695373.82741
  20668685.016    20668684.093   108614749.05641  20668685.887    84634871.33441
  22260230.869    22260231.363   118868419.13941  22260238.014    92453233.68641
  19995014.003    19995013.616   105074619.36041  19995017.678    81876358.72641
  21964192.910    21964192.028   117328813.65641  21964201.289    91255775.48641
  24556234.533    24556234.202   129043932.91741  24556240.604   100553701.02741
  22738118.861    22738118.813   119489657.69841  22738124.863    93108836.24841
  21555836.243    21555834.488   115349646.24341  21555842.273    89716426.10841
 12  1  1 17 17  0.0000000  0 17G19G32R18G18G 9G11R19R 2G 3R 3G22R13
                                G14R12G31G 6R17
  22131116.150    22131114.492   116299829.62841  22131118.156    90623263.93041
  25268485.237           0.000           0.00000         0.000           0.00000
  20167516.698    20167516.192   107655599.17441  20167525.667    83732161.39941
  23178150.730    23178148.974   121802094.76241  23178153.415    94910748.13541
  24718496.416    24718497.238   129896594.71641  24718502.550   101218142.23041
  24469830.447    24469829.790   128589838.52841  24469834.979   100199875.67841
  22737471.422    22737471.178   121630164.46141  22737478.940    94601260.70641
  21481914.967    21481914.284   114631712.25641  21481921.245    89158059.91841
  22479224.852    22479225.310   118129165.18041  22479230.832    92048694.99941
  20341080.775    20341081.240   108887443.53741  20341088.065    84690270.79741
  20673043.260    20673042.576   108637655.92841  20673045.254    84652720.85341
  22241234.795    22241234.716   118766977.19141  22241242.252    92374334.49141
  19993315.478    19993314.813   105065691.31441  19993318.519    81869401.82641
  21962495.612    21962494.922   117319749.74541  21962505.921    91248725.78341
  24536260.448    24536258.764   128938959.46941  24536266.628   100471903.68341
  22754080.004    22754079.816   119573528.84241  22754084.983    93174190.38241
  21577811.719    21577811.440   115467250.71141  21577818.979    89807896.25141
 12  1  1 17 17 30.0000000  0 17G19G32R18G18G 9G11R19R 2G 3R 3G22R13
                                G14R12G31G 6R17
  22131013.370    22131012.548   116299292.91941  22131016.168    90622845.71341
  25253637.382           0.000           0.00000         0.000           0.00000
  20170286.839    20170286.489   107670388.68441  20170295.176    83743664.35041
  23192434.668    23192434.218   121877164.52941  23192438.971    94969244.03141
  24729791.529    24729792.288   129955947.92841  24729797.576   101264391.47341
  24451682.311    24451682.428   128494476.08541  24451686.766   100125567.29141
  22720446.240    22720445.629   121539090.55941  22720452.961    94530425.49841
  21492632.495    21492632.012   114688916.17241  21492641.437    89202551.82341
  22489959.675    22489958.733   118185567.33941  22489965.074    92092644.72541
  20339890.134    20339889.265   108881063.89841  20339896.126    84685308.87041
  20677440.714    20677440.169   108660764.79141  20677442.871    84670727.76341
  22222298.049    22222297.853   118665862.92941  22222308.429    92295690.14941
  19991720.653    19991720.323   105057312.45141  19991723.884    81862872.85341
  21960940.514    21960939.779   117311442.23341  21960950.819    91242264.38341
  24516269.783    24516267.540   128833915.49041  24516273.920   100390051.42641
  22770083.539    22770082.994   119657630.82541  22770089.637    93239724.37741
  21599848.438    21599848.842   115585178.85141  21599856.813    89899618.08541
 12  1  1 17 18  0.0000000  0 17G19G32R18G18G 9G11R19R 2G 3R 3G22R13
                                G14R12G31G 6R17
  22131024.690    22131022.996   116299347.80941  22131026.976    90622888.47341
  25238786.816           0.000           0.00000         0.000           0.00000
  20173212.577    20173211.925   107686005.50841  20173221.079    83755810.76041
  23206732.357    23206731.282   121952295.47341  23206735.548    95027787.59941
  24741164.237    24741162.108   130015702.38641  24741167.775   101310953.36841
  24433561.174    24433560.554   128399243.44141  24433563.605   100051360.10841
  22703522.373    22703522.051   121448558.54141  22703529.087    94460011.74741
  21503364.475    21503363.669   114746177.28441  21503371.596    89247088.22241
  22500752.779    22500752.111   118242290.68241  22500758.967    92136844.69541
  20338731.357    20338731.003   108874864.90341  20338737.802    84680487.43441
  20681877.058    20681876.055   108684075.70341  20681878.818    84688892.11841
  22203426.125    22203425.230   118565081.13541  22203434.503    92217304.37441
  19990230.359    19990230.099   105049482.34141  19990233.959    81856771.48541
  21959527.572    21959527.112   117303892.70541  21959536.575    91236392.51641
  24496265.232    24496264.780   128728804.00941  24496269.032   100308146.49741
  22786130.424    22786130.190   119741960.58441  22786136.365    93305435.83841
  21621946.826    21621946.602   115703426.23741  21621954.708    89991588.22141
 12  1  1 17 18 30.0000000  0 17G19G32R18G18G 9G11R19R 2G 3R 3G22R13
                                G14R12G31G 6R17
  22131146.620    22131145.514   116299993.42841  22131149.403    90623391.55241
  25223941.328           0.000           0.00000         0.000           0.00000
  20176293.715    20176292.845   107702447.92941  20176301.754    83768599.30641
  23221041.158    23221040.613   122027487.15241  23221044.467    95086378.43941
  24752609.539    24752609.529   130075856.00941  24752616.371   101357826.28141
  24415462.615    24415462.542   128304142.02041  24415466.545    99977255.17241
  22686700.130    22686699.962   121358571.74741  22686707.321    94390022.05841
  21514105.709    21514105.078   114803495.10241  21514113.063    89291668.71941
  22511608.313    22511606.758   118299332.12641  22511613.547    92181292.53541
  20337606.818    20337607.115   108868845.55141  20337614.020    84675805.72141
  20686351.151    20686350.475   108707588.21541  20686352.767    84707213.55441
  22184616.721    22184615.129   118464636.33941  22184623.391    92139180.73641
  19988844.867    19988844.506   105042200.02541  19988847.985    81851096.96541
  21958254.591    21958254.762   117297101.66241  21958265.786    91231110.60641
  24476250.870    24476249.806   128623627.43041  24476259.572   100226190.88241
  22802221.409    22802220.912   119826514.71441  22802226.658    93371322.10241
  21644103.587    21644102.975   115821988.18241  21644110.385    90083803.03041
 12  1  1 17 19  0.0000000  0 17G19G32R18G18G 9G11R19R 2G 3R 3G22R13
                                G14R12G31G 6R17
  22131381.645    22131381.315   116301229.55941  22131384.747    90624354.76441
  25209093.047           0.000           0.00000         0.000           0.00000
  20179527.028    20179526.407   107719714.71441  20179535.622    83782029.02341
  23235361.870    23235361.942   122102739.78741  23235364.231    95145016.86141
  24764132.059    24764132.854   130136407.40041  24764139.307   101405009.12441
  24397391.050    24397390.794   128209174.22641  24397394.486    99903254.38541
  22669982.932    22669981.115   121269134.10541  22669987.828    94320459.50641
  21524858.341    21524857.370   114860869.36441  21524866.188    89336293.13841
  22522521.777    22522521.822   118356688.96941  22522527.668    92225986.14841
  20336515.388    20336515.174   108863005.10841  20336522.285    84671263.15241
  20690864.368    20690862.924   108731302.11341  20690865.525    84725691.91641
  22165868.695    22165868.240   118364533.29141  22165876.759    92061322.89941
  19987563.027    19987562.704   105035464.88741  19987566.675    81845848.82241
  21957126.283    21957126.449   117291070.53041  21957136.962    91226419.71741
  24456226.869    24456224.458   128518388.74841  24456235.870   100144186.91041
  22818352.643    22818353.108   119911290.05941  22818360.264    93437380.81941
  21666316.295    21666317.097   115940860.35141  21666324.560    90176259.12941
 12  1  1 17 19 30.0000000  0 17G19G32R18G18G 9G11R19R 2G 3R 3G22R13
                                G14R12G31G 6R17
  22131730.067    22131728.714   116303055.78941  22131732.114    90625777.79041
  25194247.554           0.000           0.00000         0.000           0.00000
  20182917.433    20182916.248   107737805.19141  20182924.977    83796099.38341
  23249692.524    23249691.072   122178052.91941  23249696.559    95203702.39141
  24775729.206    24775728.497   130197354.51241  24775734.360   101452500.33241
  24379346.340    24379344.977   128114342.23241  24379349.123    99829359.33141
  22653365.150    22653364.102   121180249.26941  22653370.483    94251326.88941
  21535620.355    21535619.601   114918299.80241  21535627.668    89380961.24741
  22533495.864    22533494.832   118414358.98341  22533501.890    92270923.79941
  20335458.650    20335458.580   108857342.85841  20335464.652    84666859.18641
  20695415.028    20695414.197   108755217.47741  20695416.768    84744327.26641
  22147187.980    22147187.554   118264776.76941  22147196.740    91983734.59141
  19986385.859    19986385.250   105029276.30741  19986388.895    81841026.56941
  21956139.882    21956139.733   117285800.36141  21956150.314    91222320.70341
  24436189.765    24436188.913   128413090.64341  24436194.341   100062136.58841
  22834527.791    22834526.408   119996283.36041  22834533.556    93503609.34741
  21688587.161    21688588.248   116060038.23541  21688596.137    90268952.98641
 12  1  1 17 20  0.0000000  0 17G19G32R18G18G 9G11R19R 2G 3R 3G22R13
                                G14R12G31G 6R17
  22132189.439    22132188.887   116305471.23441  22132192.008    90627659.95941
  25179404.527           0.000           0.00000         0.000           0.00000
  20186458.848    20186457.953   107756717.40841  20186468.049    83810808.87641
  23264035.548    23264034.482   122253426.18641  23264039.797    95262434.77241
  24787404.296    24787401.565   130258695.71341  24787409.132   101500298.65541
  24361326.647    24361325.771   128019647.92041  24361327.850    99755571.61941
  22636852.373    22636852.150   121091920.82041  22636859.565    94182627.04141
  21546393.019    21546392.105   114975785.88241  21546400.503    89425672.61141
  22544529.779    22544529.416   118472339.30741  22544535.710    92316103.24441
  20334433.746    20334433.583   108851857.77441  20334440.375    84662593.01241
  20700004.280    20700003.278   108779334.08641  20700005.814    84763119.43141
  22128571.853    22128571.857   118165371.21541  22128581.009    91906419.21641
  19985311.526    19985311.285   105023633.09241  19985314.821    81836629.27041
  21955295.825    21955295.497   117281292.34941  21955305.991    91218814.46741
  24416140.634    24416138.875   128307735.42741  24416146.125    99980041.85741
  22850742.213    22850741.537   120081491.61441  22850747.486    93570005.30441
  21710916.063    21710915.820   116179517.38141  21710923.261    90361881.15341
 12  1  1 17 20 30.0000000  0 18G19G32R18G18G 9G11G21R19R 2G 3R 3G22
                                R13G14R12G31G 6R17
  22132761.359    22132760.177   116308475.39741  22132763.794    90630000.85641
  25164561.650           0.000           0.00000         0.000           0.00000
  20190156.475    20190155.949   107776451.14541  20190164.926    83826157.33741
  23278390.450    23278389.217   122328859.47541  23278394.801    95321213.90141
  24799149.258    24799149.213   130320429.36141  24799156.650   101548402.82241
  24343331.071    24343333.106   127925093.78241  24343336.327    99681893.09241
  24431239.577           0.000           0.00000         0.000           0.00000
  22620448.380    22620446.120   121004152.42141  22620451.654    94114362.76741
  21557176.606    21557175.488   115033327.23141  21557184.526    89470426.98141
  22555620.258    22555620.618   118530627.34841  22555627.071    92361522.49741
  20333440.955    20333441.476   108846549.30241  20333448.453    84658464.20241
  20704631.556    20704630.730   108803651.82541  20704632.803    84782068.33741
  22110023.223    22110022.478   118066321.51841  22110032.038    91829380.67341
  19984342.135    19984341.190   105018534.88841  19984345.069    81832656.65941
  21954594.325    21954594.398   117277547.40341  21954605.039    91215901.76241
  24396084.006    24396081.600   128202326.50341  24396085.587    99897905.25341
  22866996.815    22866995.790   120166911.62041  22867001.058    93636566.34741
  21733298.754    21733298.689   116299293.37041  21733306.141    90455040.23741
 12  1  1 17 21  0.0000000  0 18G19G32R18G18G 9G11G21R19R 2G 3R 3G22
                                R13G14R12G31G 6R17
  22133445.257    22133443.651   116312067.82041  22133446.651    90632800.13541
  25149713.548           0.000           0.00000         0.000           0.00000
  20194007.045    20194006.265   107797004.62441  20194015.035    83842143.35241
  23292757.014    23292756.969   122404352.29341  23292760.327    95380039.49441
  24810973.427    24810972.184   130382553.85641  24810978.648   101596811.51941
  24325364.561    24325366.091   127830681.84541  24325370.345    99608325.45541
  24450274.542           0.000           0.00000         0.000           0.00000
  22604143.323    22604142.874   120916947.54941  22604150.664    94046536.81241
  21567969.319    21567968.207   115090923.32841  21567977.864    89515223.92241
  22566771.887    22566770.765   118589220.15641  22566777.709    92407179.24341
  20332483.831    20332483.100   108841416.44541  20332488.883    84654471.97141
  20709297.340    20709296.469   108828170.41341  20709298.670    84801173.73741
  22091542.109    22091541.481   117967632.31641  22091549.933    91752622.46441
  19983474.934    19983474.192   105013980.62141  19983478.033    81829107.89441
  21954037.327    21954036.589   117274566.33941  21954047.186    91213583.15741
  24376019.138    24376015.076   128096866.07041  24376023.400    99815728.42841
  22883289.754    22883291.046   120252539.80541  22883297.138    93703289.60141
  21755736.689    21755736.557   116419361.30741  21755744.328    90548426.37441
 12  1  1 17 21 30.0000000  0 18G19G32R18G18G 9G11G21R19R 2G 3R 3G22
                                R13G14R12G31G 6R17
  22134240.196    22134238.843   116316247.65141  22134242.174    90636057.14541
  25134874.007           0.000           0.00000         0.000           0.00000
  20198010.489    20198009.583   107818376.44541  20198018.691    83858765.87741
  23307133.149    23307132.349   122479904.88541  23307136.592    95438911.63941
  24822868.927    24822867.430   130445067.38941  24822874.225   101645523.35241
  24307429.585    24307428.804   127736414.45341  24307431.977    99534870.36241
  24469329.056           0.000           0.00000         0.000           0.00000
  22587947.673    22587946.965   120830309.98241  22587955.359    93979152.09441
  21578772.892    21578772.574   115148574.45841  21578781.105    89560063.64141
  22577979.870    22577979.814   118648115.05541  22577984.693    92453071.37841
  20331556.500    20331556.476   108836458.67041  20331563.581    84650615.92841
  20714001.446    20714000.663   108852889.71441  20714002.998    84820435.53441
  22073128.349    22073127.723   117869308.26641  22073137.371    91676148.27441
  19982712.005    19982711.335   105009969.65541  19982714.744    81825982.48041
  21953623.378    21953621.873   117272350.11341  21953632.500    91211859.41941
  24355933.271    24355935.186   127991357.02641  24355940.540    99733513.69641
  22899625.566    22899624.143   120338373.20641  22899630.951    93770172.72341
  21778228.026    21778227.391   116539717.17541  21778236.353    90642036.45041
 12  1  1 17 22  0.0000000  0 18G19G32R18G18G 9G11G21R19R 2G 3R 3G22
                                R13G14R12G31G 6R17
  22135146.654    22135145.807   116321014.15141  22135149.597    90639771.29341
  25120033.474           0.000           0.00000         0.000           0.00000
  20202166.583    20202165.952   107840565.05541  20202175.387    83876023.67741
  23321521.187    23321520.248   122555517.03741  23321524.904    95497830.10941
  24834837.692    24834837.135   130507967.84841  24834844.480   101694536.65241
  24289517.669    24289516.016   127642293.71141  24289521.816    99461529.56441
  24488411.194           0.000           0.00000         0.000           0.00000
  22571858.934    22571857.817   120744243.07041  22571863.965    93912211.19341
  21589587.859    21589586.598   115206279.64241  21589595.218    89604945.44841
  22589242.384    22589242.237   118707309.45941  22589248.992    92499196.87341
  20330663.127    20330663.328   108831674.94941  20330669.754    84646895.25041
  20718743.349    20718742.583   108877809.49641  20718745.034    84839853.55441
  22054787.015    22054785.010   117771354.06341  22054792.915    91599961.76441
  19982051.164    19982050.946   105006501.01941  19982054.823    81823279.65841
  21953351.530    21953350.417   117270899.60241  21953360.949    91210731.27541
  24335851.590    24335848.713   127885802.07041  24335852.239    99651263.27241
  22915996.395    22915996.361   120424408.52241  22916002.900    93837213.18341
  21800770.954    21800771.394   116660356.16441  21800780.239    90735866.70941
 12  1  1 17 22 30.0000000  0 18G19G32R18G18G 9G11G21R19R 2G 3R 3G22
                                R13G14R12G31G 6R17
  22136165.651    22136164.356   116326366.95141  22136167.976    90643942.28841
  25105200.841           0.000           0.00000         0.000           0.00000
  20206476.934    20206476.288   107863570.11041  20206485.120    83893916.48441
  23335921.093    23335920.417   122631188.58941  23335926.138    95556794.93341
  24846880.645    24846881.291   130571253.58341  24846887.599   101743850.20241
  24271634.573    24271634.531   127548321.90041  24271639.860    99388304.84441
  24507507.300           0.000           0.00000         0.000           0.00000
  22555874.928    22555875.193   120658750.25441  22555881.627    93845716.82241
  21600411.805    21600410.676   115264039.04641  21600419.484    89649869.39141
  22600564.567    22600563.243   118766800.85441  22600570.040    92545553.75641
  20329802.157    20329801.883   108827064.83341  20329808.362    84643309.60741
  20723523.532    20723522.803   108902929.82241  20723525.024    84859427.84541
  22036513.539    22036511.956   117673774.82241  22036520.534    91524066.89641
  19981494.513    19981494.139   105003573.95541  19981497.469    81820998.85041
  21953222.190    21953221.255   117270215.80741  21953231.913    91210199.43041
  24315753.225    24315752.609   127780204.18141  24315761.284    99568979.34841
  22932406.679    22932406.375   120510642.78241  22932411.985    93904408.69141
  21823367.733    21823368.145   116781273.99641  21823376.654    90829913.86641
 12  1  1 17 23  0.0000000  0 17G19R18G18G 9G11G21R19R 2G 3R 3G22R13
                                G14R12G31G 6R17
  22137295.799    22137294.927   116332304.97941  22137298.103    90648569.31541
  20210939.264    20210938.278   107887389.13741  20210947.420    83912442.39241
  23350333.170    23350332.454   122706919.17041  23350334.436    95615805.74341
  24858997.405    24858995.960   130634922.92741  24859002.527   101793462.62841
  24253779.806    24253781.434   127454501.09141  24253785.823    99315197.76741
  24526628.406           0.000           0.00000         0.000           0.00000
  22540003.645    22540001.965   120573835.27641  22540009.777    93779671.87041
  21611244.865    21611244.179   115321852.17141  21611253.701    89694835.13141
  22611943.172    22611941.185   118826586.09541  22611946.828    92592139.63641
  20328972.512    20328972.740   108822627.46541  20328979.579    84639858.32041
  20728341.648    20728340.792   108928250.35341  20728343.260    84879158.13341
  22018309.158    22018308.163   117576574.52141  22018317.996    91448466.75741
  19981040.151    19981039.986   105001187.70141  19981043.760    81819139.44741
  21953238.272    21953237.995   117270299.36741  21953248.538    91210264.45641
  24295649.083    24295649.328   127674565.65441  24295659.644    99486663.81241
  22948853.215    22948853.418   120597072.54241  22948858.414    93971756.51241
  21846016.148    21846016.364   116902466.19641  21846024.527    90924174.39341
 12  1  1 17 23 30.0000000  0 17G19R18G18G 9G11G21R19R 2G 3R 3G22R13
                                G14R12G31G 6R17
  22138536.649    22138536.109   116338827.52341  22138538.930    90653651.81341
  20215552.728    20215552.035   107912021.33341  20215561.461    83931600.75641
  23364754.531    23364754.915   122782708.44141  23364758.379    95674862.28241
  24871186.093    24871185.195   130698973.84841  24871192.205   101843372.46041
  24235956.822    24235956.667   127360833.41941  24235961.126    99242210.01141
  24545775.276           0.000           0.00000         0.000           0.00000
  22524235.790    22524235.634   120489501.56241  22524244.423    93714079.03341
  21622090.366    21622089.425   115379718.40741  21622096.588    89739842.17641
  22623373.344    22623371.982   118886662.93241  22623378.609    92638952.73541
  20328176.402    20328176.301   108818361.93141  20328182.894    84636540.68441
  20733198.700    20733197.606   108953771.13841  20733200.028    84899044.46341
  22000179.558    22000178.899   117479758.02741  22000186.421    91373165.08041
  19980689.113    19980688.623   104999340.96641  19980692.302    81817700.44741
  21953398.042    21953396.816   117271150.83741  21953407.355    91210926.74241
  24275544.654    24275542.052   127568889.46741  24275546.230    99404318.91141
  22965336.875    22965337.334   120683694.67941  22965342.946    94039254.28141
  21868714.573    21868714.559   117023927.93341  21868723.042    91018644.57641
 12  1  1 17 24  0.0000000  0 17G19G32R18G18G 9G11R19R 2G 3R 3G22R13
                                G14R12G31G 6R17
  22139889.841    22139888.190   116345933.72841  22139891.791    90659189.10441
  25060672.789           0.000           0.00000         0.000           0.00000
  20220319.075    20220318.800   107937464.86141  20220328.509    83951390.15141
  23379187.623    23379188.269   122858556.23141  23379192.323    95733964.39641
  24883447.486    24883447.100   130763404.78641  24883452.692   101893578.27941
  24218162.537    24218162.776   127267321.08441  24218165.420    99169343.28241
  22508581.247    22508580.314   120405752.66441  22508586.734    93648941.02441
  21632944.338    21632943.329   115437637.80841  21632952.678    89784890.58641
  22634860.676    22634859.441   118947028.45241  22634865.018    92685990.75541
  20327411.298    20327411.039   108814267.59641  20327417.757    84633356.20741
  20738092.828    20738091.952   108979492.04241  20738094.407    84919086.73641
  21982120.683    21982119.668   117383330.13041  21982128.562    91298165.64041
  19980439.710    19980439.495   104998033.24241  19980443.379    81816681.45341
  21953701.054    21953700.626   117272771.10541  21953710.723    91212186.98141
  24255426.911    24255427.098   127463178.52041  24255431.386    99321946.89041
  22981856.036    22981856.813   120770505.98941  22981863.098    94106899.43041
  21891461.789    21891461.816   117145655.05841  21891470.035    91113321.17741
 12  1  1 17 24 30.0000000  0 17G19G32R18G18G 9G11R19R 2G 3R 3G22R13
                                G14R12G31G 6R17
  22141352.265    22141351.350   116353622.71041  22141354.588    90665180.52441
  25045829.415           0.000           0.00000         0.000           0.00000
  20225237.082    20225236.602   107963717.57741  20225246.067    83971808.93141
  23393632.237    23393631.532   122934462.48441  23393636.040    95793112.08541
  24895777.797    24895777.300   130828213.40341  24895783.742   101944078.47141
  24200396.835    24200396.813   127173966.26441  24200401.454    99096599.29641
  22493033.566    22493033.670   120322591.59041  22493041.005    93584260.19741
  21643808.218    21643807.264   115495609.91241  21643815.825    89829979.97141
  22646400.874    22646400.892   119007679.68341  22646408.450    92733251.40041
  20326678.636    20326678.016   108810343.73641  20326684.984    84630304.31841
  20743025.557    20743024.602   109005412.68541  20743027.003    84939284.65241
  21964136.244    21964135.311   117287295.17941  21964144.504    91223471.88641
  19980293.781    19980293.287   104997263.34741  19980296.910    81816081.55141
  21954147.487    21954146.843   117275160.73241  21954157.672    91214045.59941
  24235300.446    24235301.813   127357435.27241  24235309.397    99239549.69441
  22998411.367    22998412.116   120857503.12941  22998417.018    94174689.34841
  21914257.204    21914257.893   117267642.82541  21914265.082    91208200.48741
 12  1  1 17 25  0.0000000  0 17G19G32R18G18G 9G11R19R 2G 3R 3G22R13
                                G14R12G31G 6R17
  22142926.027    22142925.150   116361893.90541  22142928.542    90671625.61841
  25030989.791           0.000           0.00000         0.000           0.00000
  20230307.112    20230306.501   107990778.27841  20230314.811    83992856.12841
  23408089.346    23408087.881   123010427.10241  23408092.653    95852305.28741
  24908181.578    24908181.429   130893398.08841  24908189.826   101994871.65741
  24182662.528    24182663.721   127080771.41841  24182666.927    99023979.99641
  22477600.526    22477599.515   120240022.19341  22477606.527    93520039.58841
  21654681.872    21654680.608   115553634.64441  21654688.902    89875110.28941
  22657997.342    22657996.027   119068613.93341  22658002.535    92780732.61041
  20325975.940    20325976.683   108806589.71541  20325983.989    84627384.53541
  20747996.706    20747995.482   109031533.12041  20747997.395    84959638.25441
  21946228.022    21946226.474   117191657.99841  21946234.916    91149087.50341
  19980248.938    19980248.572   104997030.36541  19980252.438    81815900.02341
  21954739.219    21954738.841   117278320.24241  21954749.997    91216503.01541
  24215174.411    24215174.670   127251662.61641  24215181.092    99157129.60141
  23015002.347    23015002.480   120944682.96941  23015008.200    94242621.66841
  21937101.927    21937101.429   117389887.03141  21937110.367    91303279.24641
 12  1  1 17 25 30.0000000  0 17G19G32R18G18G 9G11R19R 2G 3R 3G22R13
                                G14R12G31G 6R17
  22144610.518    22144610.133   116370746.14641  22144613.052    90678523.47841
  25016150.713           0.000           0.00000         0.000           0.00000
  20235527.406    20235526.900   108018645.57741  20235536.641    84014530.68241
  23422554.303    23422553.184   123086449.79941  23422558.635    95911543.72641
  24920660.408    24920658.857   130958956.88641  24920665.292   102045956.37841
  24164959.309    24164960.164   126987738.73641  24164963.021    98951487.02241
  22462275.334    22462274.397   120158047.73741  22462282.027    93456281.72341
  21665565.817    21665565.303   115611711.79941  21665573.957    89920281.38541
  22669646.574    22669645.770   119129828.39741  22669650.661    92828432.16241
  20325306.951    20325307.214   108803004.73041  20325313.902    84624596.21841
  20753004.768    20753003.651   109057853.24441  20753005.740    84980147.45141
  21928392.077    21928391.767   117096423.30741  21928400.643    91075016.14541
  19980306.476    19980306.234   104997333.21141  19980309.982    81816136.01641
  21955474.822    21955474.849   117282250.58341  21955485.267    91219559.96541
  24195042.372    24195041.953   127145863.47441  24195046.875    99074688.85341
  23031626.378    23031626.575   121032042.43741  23031631.992    94310693.97441
  21959993.353    21959993.564   117512382.92441  21960002.594    91398553.76841
 12  1  1 17 26  0.0000000  0 18G19G32R18G18G 9G11R19R 4R 2G 3R 3G22
                                R13G14R12G31G 6R17
  22146405.476    22146405.036   116380178.71841  22146407.402    90685873.54441
  25001313.852           0.000           0.00000         0.000           0.00000
  20240898.579    20240898.020   108047317.45841  20240906.942    84036831.02441
  23437032.839    23437031.322   123162530.50141  23437037.277    95970827.37841
  24933205.193    24933205.411   131024888.50541  24933210.223   102097331.69741
  24147286.868    24147286.521   126894870.07841  24147290.565    98879121.84941
  22447064.377    22447062.139   120076671.62541  22447067.822    93392989.20941
  22680717.806    22680718.489   121454226.09141  22680726.224    94464427.63041
  21676458.810    21676458.024   115669840.96041  21676467.071    89965492.93541
  22681347.218    22681347.202   119191320.51741  22681353.389    92876348.07841
  20324668.904    20324668.891   108799588.20841  20324675.430    84621938.94041
  20758050.776    20758050.114   109084372.79741  20758052.179    85000812.05541
  21910633.591    21910632.735   117001595.65041  21910641.766    91001261.36941
  19980466.674    19980465.994   104998170.93141  19980469.377    81816788.80141
  21956356.548    21956355.553   117286951.80441  21956365.257    91223216.49841
  24174902.041    24174903.638   127040040.44341  24174910.975    98992229.52041
  23048283.976    23048283.291   121119578.17741  23048289.305    94378903.61741
  21982931.810    21982931.953   117635126.24541  21982939.828    91494020.73141
 12  1  1 17 26 30.0000000  0 18G19G32R18G18G 9G11R19R 4R 2G 3R 3G22
                                R13G14R12G31G 6R17
  22148310.729    22148310.363   116390190.48141  22148313.735    90693674.91541
  24986476.424           0.000           0.00000         0.000           0.00000
  20246420.872    20246420.233   108076792.57441  20246428.648    84059756.09741
  23451522.823    23451520.826   123238668.95141  23451523.588    96030155.98841
  24945821.333    24945821.775   131091190.85341  24945828.892   102148995.85941
  24129646.000    24129644.841   126802167.82241  24129649.207    98806886.38641
  22431963.107    22431961.597   119995897.10541  22431969.728    93330164.59841
  22669100.106    22669099.354   121392003.99941  22669107.626    94416032.69041
  21687361.604    21687360.993   115728021.91341  21687369.343    90010744.76441
  22693100.717    22693100.827   119253087.49941  22693107.342    92924478.18241
  20324062.043    20324061.801   108796339.21741  20324068.528    84619411.95141
  20763135.308    20763134.492   109111091.63841  20763136.978    85021631.93641
  21892954.539    21892953.211   116907179.65541  21892961.144    90927826.76941
  19980726.808    19980726.577   104999542.33541  19980730.585    81817857.44241
  21957380.560    21957380.190   117292424.54541  21957389.540    91227473.08441
  24154761.499    24154760.251   126934196.42541  24154769.476    98909753.78841
  23064975.042    23064973.151   121207286.99241  23064977.931    94447248.13041
  22005915.258    22005914.525   117758112.30741  22005922.442    91589676.49641
 12  1  1 17 27  0.0000000  0 18G19G32R18G18G 9G11R19R 4R 2G 3R 3G22
                                R13G14R12G31G 6R17
  22150326.726    22150325.389   116400781.22141  22150328.169    90701927.45541
  24971643.220           0.000           0.00000         0.000           0.00000
  20252092.893    20252091.866   108107069.16741  20252100.999    84083304.55341
  23466020.104    23466019.688   123314865.25741  23466024.662    96089529.66841
  24958507.425    24958509.286   131157862.15541  24958514.311   102200947.49241
  24112036.751    24112037.859   126709634.69441  24112040.897    98734782.65141
  22416976.170    22416975.512   119915728.26841  22416982.401    93267811.10141
  22657498.582    22657499.974   121329887.81641  22657506.329    94367720.07741
  21698274.630    21698274.061   115786254.85841  21698282.339    90056037.02541
  22704907.914    22704907.847   119315126.80041  22704912.391    92972820.47841
  20323486.303    20323485.901   108793257.56741  20323493.361    84617015.12941
  20768257.777    20768257.141   109138009.94241  20768259.020    85042607.25341
  21875348.746    21875348.489   116813180.21341  21875358.931    90854716.14641
  19981089.859    19981089.346   105001446.85341  19981092.886    81819341.49541
  21958550.542    21958549.588   117298669.71441  21958560.116    91232330.42041
  24134618.990    24134617.603   126828334.51141  24134623.467    98827264.14441
  23081696.393    23081696.283   121295166.08041  23081702.033    94515725.31241
  22028941.919    22028942.016   117881337.10441  22028950.137    91685517.93241
 12  1  1 17 27 30.0000000  0 18G19G32R18G18G 9G11R19R 4R 2G 3R 3G22
                                R13G14R12G31G 6R17
  22152451.566    22152450.585   116411948.94141  22152453.685    90710629.57741
  24956805.428           0.000           0.00000         0.000           0.00000
  20257913.380    20257912.825   108138144.38841  20257921.765    84107474.14841
  23480531.503    23480531.733   123391118.43941  23480536.777    96148947.66941
  24971266.729    24971266.543   131224899.95341  24971271.112   102253184.71441
  24094460.877    24094462.238   126617272.49941  24094464.488    98662812.12041
  22402103.114    22402102.093   119836167.65241  22402109.680    93205930.62741
  22645919.253    22645918.651   121267876.03141  22645925.350    94319488.67841
  21709197.027    21709196.045   115844538.96041  21709204.652    90101369.07141
  22716764.362    22716764.210   119377435.11541  22716770.104    93021372.38941
  20322941.172    20322941.360   108790342.14641  20322948.612    84614747.59641
  20773417.826    20773416.978   109165127.29341  20773419.384    85063737.66841
  21857826.343    21857825.851   116719601.59041  21857833.958    90781932.81441
  19981553.196    19981552.655   105003883.02741  19981556.388    81821239.83141
  21959863.157    21959862.469   117305686.96541  21959871.992    91237788.28041
  24114471.157    24114471.929   126722456.90341  24114474.855    98744762.27841
  23098450.879    23098450.911   121383211.62841  23098457.424    94584332.19741
  22052013.172    22052012.418   118004795.51241  22052020.854    91781541.05141
 12  1  1 17 28  0.0000000  0 18G19G32R18G18G 9G11R19R 4R 2G 3R 3G22
                                R13G14R12G31G 6R17
  22154685.183    22154684.948   116423692.88841  22154688.701    90719780.71541
  24941968.662           0.000           0.00000         0.000           0.00000
  20263883.608    20263883.293   108170016.57641  20263893.460    84132263.62441
  23495053.732    23495053.501   123467429.12141  23495056.456    96208410.48541
  24984090.879    24984092.146   131292302.50441  24984098.361   102305706.11841
  24076918.914    24076918.761   126525083.43241  24076923.926    98590976.50641
  22387342.966    22387343.439   119757218.77141  22387350.822    93144525.97341
  22634359.356    22634359.031   121205968.40441  22634366.579    94271338.36241
  21720130.779    21720129.726   115902874.49541  21720137.634    90146741.13241
  22728671.413    22728671.507   119440009.84141  22728677.813    93070131.90341
  20322428.186    20322428.303   108787592.52541  20322434.732    84612609.01141
  20778616.551    20778615.514   109192443.86041  20778617.870    85085023.31141
  21840378.886    21840379.000   116626448.25441  21840388.955    90709480.28341
  19982117.899    19982117.341   105006849.89541  19982120.925    81823551.68741
  21961321.708    21961320.183   117313477.04741  21961331.337    91243847.27141
  24094319.561    24094320.386   126616566.84341  24094323.446    98662250.70341
  23115235.929    23115235.567   121471420.81941  23115242.364    94653066.62441
  22075125.340    22075126.623   118128483.55041  22075135.291    91877742.76041
 12  1  1 17 28 30.0000000  0 18G19G32R18G18G 9G11R19R 4R 2G 3R 3G22
                                R13G14R12G31G 6R17
  22157029.766    22157029.445   116436012.14641  22157033.091    90729380.14941
  24927134.575           0.000           0.00000         0.000           0.00000
  20270003.573    20270003.215   108202684.28741  20270012.921    84157671.82341
  23509584.060    23509584.463   123543797.07641  23509589.633    96267917.96441
  24996987.230    24996987.262   131360067.85941  24996993.402   102358510.26241
  24059409.541    24059408.771   126433069.60241  24059414.553    98519277.44341
  22372700.456    22372699.700   119678884.67441  22372706.795    93083599.46741
  22622814.167    22622816.373   121144164.20141  22622823.580    94223268.46741
  21731069.532    21731069.480   115961260.78141  21731078.787    90192152.67741
  22740628.953    22740628.609   119502848.08141  22740635.785    93119096.71841
  20321946.078    20321945.404   108785007.74441  20321951.841    84610598.64941
  20783852.685    20783851.398   109219959.17841  20783853.348    85106463.82741
  21823016.701    21823016.510   116533725.22341  21823024.821    90637362.43241
  19982783.226    19982782.634   105010346.37741  19982786.156    81826276.23341
  21962924.762    21962923.790   117322039.92241  21962934.320    91250507.31441
  24074167.744    24074167.684   126510666.91241  24074172.474    98579731.40241
  23132053.867    23132052.897   121559790.20541  23132058.881    94721925.85441
  22098282.574    22098282.787   118252396.33741  22098291.153    91974119.29041
 12  1  1 17 29  0.0000000  0 18G19G32R18G18G 9G11R19R 4R 2G 3R 3G22
                                R13G14R12G31G 6R17
  22159485.060    22159483.490   116448905.63541  22159486.446    90739427.05041
  24912296.557           0.000           0.00000         0.000           0.00000
  20276271.626    20276271.553   108236145.17641  20276280.754    84183696.94641
  23524128.727    23524128.144   123620221.94141  23524132.678    96327469.71241
  25009950.510    25009951.627   131428194.06641  25009957.845   102411595.60941
  24041933.738    24041933.655   126341233.25441  24041937.454    98447716.69741
  22358171.500    22358171.483   119601168.96141  22358178.807    93023153.92641
  22611293.547    22611294.052   121082462.68341  22611303.244    94175278.43641
  21742022.285    21742021.533   116019697.97541  21742029.683    90237603.79241
  22752636.863    22752636.851   119565947.13641  22752642.034    93168264.77541
  20321493.395    20321492.892   108782587.25341  20321499.017    84608716.05941
  20789126.263    20789125.141   109247673.39741  20789127.461    85128059.32541
  21805734.255    21805734.217   116441436.37041  21805741.998    90565582.26641
  19983548.891    19983548.469   105014371.06641  19983552.203    81829412.36941
  21964672.553    21964671.137   117331376.13241  21964680.794    91257768.80841
  24054015.807    24054014.939   126404759.89241  24054017.887    98497206.54541
  23148899.571    23148899.296   121648316.65741  23148905.230    94790907.45541
  22121478.967    22121479.839   118376529.52541  22121488.817    92070667.27341
 12  1  1 17 29 30.0000000  0 18G19G32R18G18G 9G11R19R 4R 2G 3R 3G22
                                R13G14R12G31G 6R17
  22162047.172    22162045.736   116462372.15341  22162048.680    90749920.47141
  24897463.742           0.000           0.00000         0.000           0.00000
  20282689.045    20282688.625   108270397.94441  20282697.545    84210337.97541
  23538681.594    23538681.957   123696703.61141  23538685.770    96387065.77241
  25022984.516    25022983.708   131496679.34141  25022990.589   102464960.76241
  24024492.114    24024490.971   126249577.09341  24024495.009    98376296.31041
  22343761.512    22343760.135   119524074.78941  22343767.087    92963191.81541
  22599792.237    22599792.078   121020863.65641  22599797.733    94127368.10741
  21752983.072    21752982.248   116078185.92941  21752990.745    90283094.37041
  22764693.727    22764693.045   119629304.25841  22764699.263    93217633.93141
  20321070.667    20321070.915   108780330.72141  20321078.205    84606961.01441
  20794437.978    20794437.191   109275586.53741  20794439.333    85149809.82441
  21788533.529    21788532.787   116349587.12841  21788541.321    90494144.01641
  19984415.156    19984414.798   105018923.04841  19984418.571    81832959.38141
  21966564.175    21966564.218   117341485.87841  21966574.950    91265631.96941
  24033860.205    24033859.053   126298848.74441  24033864.862    98414678.53041
  23165773.877    23165774.357   121736997.22941  23165781.429    94860009.16441
  22144717.480    22144717.959   118500878.93841  22144726.478    92167383.43041
 12  1  1 17 30  0.0000000  0 17G19R18G18G 9G11R19R 4R 2G 3R 3G22R13
                                G14R12G31G 6R17
  22164717.713    22164716.863   116476411.11241  22164720.308    90760859.97141
  20289253.450    20289253.032   108305439.57341  20289262.509    84237592.57741
  23553247.716    23553246.792   123773242.13941  23553250.992    96446706.14441
  25036082.418    25036080.586   131565521.85741  25036093.125   102518604.26041
  24007082.599    24007083.323   126158103.27241  24007087.829    98305018.04141
  22329463.923    22329464.407   119447605.65841  22329471.121    92903715.88141
  22588306.889    22588306.467   120959366.41441  22588312.606    94079536.95041
  21763952.080    21763951.243   116136724.64941  21763959.843    90328624.47241
  22776799.149    22776798.071   119692917.09941  22776804.261    93267202.33641
  20320679.858    20320680.016   108778237.51141  20320687.287    84605332.97641
  20799787.527    20799786.154   109303698.42341  20799788.607    85171715.20441
  21771414.989    21771414.862   116258181.89941  21771424.762    90423051.11841
  19985381.718    19985381.029   105024001.54541  19985384.555    81836916.66841
  21968601.161    21968600.854   117352369.72041  21968611.625    91274097.19341
  24013703.225    24013704.347   126192936.65341  24013710.990    98332149.75841
  23182679.444    23182678.442   121825828.69241  23182683.660    94929228.45641
  22167995.825    22167996.033   118625440.11341  22168003.623    92264264.26241
 12  1  1 17 30 30.0000000  0 17G19R18G18G 9G11R19R 4R 2G 3R 3G22R13
                                G14R12G31G 6R17
  22167498.494    22167497.199   116491020.79941  22167500.606    90772244.17541
  20295965.132    20295964.479   108341268.35741  20295974.578    84265459.39641
  23567823.164    23567822.821   123849837.02541  23567827.359    96506390.41641
  25049249.950    25049247.973   131634719.46441  25049257.067   102572524.45041
  23989712.081    23989711.706   126066813.93241  23989716.766    98233883.52741
  22315287.815    22315287.397   119371764.56641  22315293.707    92844728.36441
  22576840.973    22576842.110   120897970.24741  22576847.499    94031784.42541
  21774932.789    21774931.603   116195313.78541  21774939.759    90374193.76341
  22788952.159    22788951.542   119756782.34441  22788957.202    93316967.46241
  20320319.148    20320319.283   108776306.79841  20320326.588    84603831.33941
  20805174.018    20805173.371   109332009.00341  20805175.975    85193775.40341
  21754383.338    21754382.032   116167224.67741  21754391.235    90352306.67741
  19986447.837    19986447.413   105029605.02441  19986451.190    81841283.03241
  21970782.556    21970783.240   117364027.08441  21970794.479    91283164.04841
  23993549.572    23993550.265   126087026.15741  23993556.455    98249622.17141
  23199611.801    23199611.423   121914807.72341  23199616.835    94998562.76241
  22191311.960    22191311.589   118750208.44241  22191320.037    92361306.19741
 12  1  1 17 31  0.0000000  0 18G19G32R18G18G 9G11R19R 4R 2G 3R 3G22
                                R13G14R12G31G 6R17
  22170385.986    22170385.212   116506200.34741  22170388.985    90784072.43141
  24852964.054           0.000           0.00000         0.000           0.00000
  20302824.403    20302824.004   108377882.33641  20302833.458    84293936.93941
  23582409.778    23582408.238   123926488.38141  23582413.756    96566118.69741
  25062491.284    25062487.905   131704270.34341  25062493.615   102626719.84041
  23972378.994    23972377.940   125975711.16741  23972380.431    98162894.35441
  22301227.509    22301226.843   119296554.57741  22301234.305    92786231.74541
  22565395.164    22565395.136   120836674.64341  22565402.349    93984110.14541
  21785922.017    21785921.042   116253953.16941  21785928.580    90419802.12941
  22801152.712    22801151.933   119820897.09541  22801158.133    93366926.96141
  20319988.786    20319989.031   108774538.23041  20319996.132    84602455.80741
  20810599.375    20810598.541   109360517.95941  20810601.056    85215990.17341
  21737435.980    21737434.976   116076720.91241  21737441.744    90281914.89841
  19987613.526    19987613.416   105035732.49141  19987617.080    81846057.69041
  21973112.643    21973110.804   117376458.71141  21973121.251    91292833.12541
  23973398.663    23973397.942   125981120.13041  23973402.069    98167098.07441
  23216570.320    23216569.751   122003931.03841  23216575.880    95068009.46441
  22214663.947    22214664.947   118875179.48041  22214674.359    92458505.79641
 12  1  1 17 31 30.0000000  0 18G19G32R18G18G 9G11R19R 4R 2G 3R 3G22
                                R13G14R12G31G 6R17
  22173382.984    22173382.299   116521948.36641  22173385.461    90796343.63941
  24838132.680           0.000           0.00000         0.000           0.00000
  20309830.367    20309829.671   108415279.51441  20309838.725    84323023.62641
  23597005.534    23597007.238   124003195.99041  23597010.723    96625890.80641
  25075786.717    25075787.958   131774172.36341  25075794.989   102681188.89541
  23955077.410    23955076.643   125884797.08741  23955079.175    98092052.24541
  22287286.004    22287285.885   119221978.79241  22287292.980    92728228.37841
  22553967.790    22553967.174   120775478.65741  22553974.441    93936513.32641
  21796919.457    21796918.209   116312642.56741  21796927.952    90465449.39041
  22813400.276    22813399.063   119885258.44841  22813405.911    93417078.62041
  20319689.051    20319688.932   108772930.66741  20319695.426    84601205.50041
  20816062.420    20816061.393   109389225.47041  20816063.893    85238359.66241
  21720571.118    21720570.110   115986674.25341  21720579.343    90211878.62641
  19988879.562    19988878.922   105042382.24641  19988882.466    81851239.33741
  21975582.914    21975582.768   117389663.99941  21975592.483    91303103.87741
  23953245.360    23953247.215   125875221.15741  23953250.700    98084579.50841
  23233556.774    23233556.681   122093195.62741  23233562.758    95137566.25341
  22238055.330    22238056.124   119000348.64041  22238065.458    92555859.48341
 12  1  1 17 32  0.0000000  0 18G19G32R18G18G 9G11R19R 4R 2G 3R 3G22
                                R13G14R12G31G 6R17
  22176488.627    22176487.119   116538263.76741  22176490.383    90809056.95241
  24823299.254           0.000           0.00000         0.000           0.00000
  20316983.280    20316982.432   108453456.75841  20316990.826    84352717.03141
  23611614.212    23611614.020   124079959.69741  23611617.437    96685706.66541
  25089157.319    25089154.761   131844423.67541  25089166.638   102735930.14141
  23937811.588    23937812.066   125794074.25241  23937816.514    98021359.14941
  22273465.159    22273464.731   119148040.42141  22273471.867    92670720.77041
  22542559.144    22542558.714   120714381.89641  22542565.723    93888993.65941
  21807927.158    21807926.788   116371382.09041  21807936.106    90511135.65041
  22825693.084    22825693.702   119949864.06841  22825699.081    93467420.64441
  20319419.094    20319419.063   108771484.02241  20319425.199    84600080.36541
  20821562.996    20821562.088   109418131.40441  20821564.680    85260883.76841
  21703794.777    21703793.797   115897089.56341  21703804.232    90142201.69441
  19990243.643    19990243.442   105049553.37141  19990247.218    81856827.24141
  21978201.180    21978199.610   117403643.30941  21978211.805    91313976.70941
  23933094.662    23933095.246   125769332.33441  23933100.253    98002068.85641
  23250570.237    23250569.763   122182598.11141  23250575.752    95207230.46541
  22261483.697    22261484.531   119125711.66741  22261492.831    92653363.95541
 12  1  1 17 32 30.0000000  0 18G19G32R18G18G 9G11R19R 4R 2G 3R 3G22
                                R13G14R12G31G 6R17
  22179701.060    22179699.578   116555145.13041  22179702.994    90822211.29841
  24808471.680           0.000           0.00040  24808475.840   101586561.22141
  20324279.735    20324279.200   108492412.29841  20324288.708    84383015.78341
  23626232.791    23626231.497   124156779.29641  23626237.569    96745566.02841
  25102591.755    25102593.921   131915021.94241  25102598.690   102790941.84741
  23920586.527    23920584.725   125703544.82041  23920588.353    97950816.75141
  22259762.108    22259761.607   119074742.53841  22259768.984    92613711.33341
  22531166.610    22531166.973   120653383.79041  22531173.910    93841550.73341
  21818944.799    21818944.104   116430171.47641  21818951.476    90556860.72641
  22838032.760    22838033.372   120014710.29541  22838040.034    93517950.12141
  20319177.530    20319178.025   108770197.56541  20319184.452    84599079.80841
  20827101.165    20827100.472   109447235.40341  20827102.933    85283562.21441
  21687106.286    21687105.518   115807971.27941  21687113.587    90072887.50641
  19991707.703    19991707.031   105057244.79841  19991710.599    81862820.57541
  21980963.258    21980962.547   117418396.40341  21980971.610    91325451.31541
  23912948.050    23912947.172   125663456.53641  23912953.196    97919568.33041
  23267607.868    23267607.237   122272135.42141  23267614.914    95276999.73941
  22284946.466    22284946.797   119251263.99141  22284954.370    92751015.64841
 12  1  1 17 33  0.0000000  0 18G19G32R18G18G 9G11R19R 4R 2G 3R 3G22
                                R13G14R12G31G 6R17
  22183020.082    22183019.293   116572591.43941  22183022.585    90835805.86041
  24793635.882    24793637.427   130291456.90141  24793645.070   101525829.57741
  20331723.351    20331722.680   108532144.64841  20331731.332    84413918.72441
  23640862.180    23640861.657   124233655.05841  23640866.382    96805469.14541
  25116093.952    25116091.776   131985965.48641  25116095.167   102846222.58941
  23903396.152    23903395.420   125613211.32641  23903399.309    97880427.04841
  22246180.700    22246180.113   119002088.52841  22246187.768    92557202.68041
  22519795.633    22519794.554   120592483.79541  22519801.584    93794184.13141
  21829970.138    21829969.288   116489011.10241  21829978.795    90602624.82541
  22850419.543    22850418.293   120079795.27741  22850425.567    93568665.67841
  20318967.986    20318967.672   108769070.75741  20318973.959    84598203.43741
  20832677.352    20832676.324   109476537.89241  20832678.793    85306395.32741
  21670505.011    21670504.013   115719324.21341  21670513.416    90003939.83241
  19993269.780    19993269.303   105065455.26741  19993273.113    81869218.36341
  21983866.816    21983867.470   117433923.48941  21983878.186    91337527.93741
  23892803.088    23892803.045   125557596.87841  23892810.082    97837080.40341
  23284672.628    23284670.894   122361804.73241  23284677.467    95346871.90341
  22308444.456    22308443.428   119377001.45741  22308453.004    92848811.32041
 12  1  1 17 33 30.0000000  0 18G19G32R18G18G 9G11R19R 4R 2G 3R 3G22
                                R13G14R12G31G 6R17
  22186448.011    22186446.588   116590601.23541  22186449.609    90849839.47741
  24778805.814    24778806.752   130213520.51241  24778812.072   101465099.94241
  20339311.275    20339310.776   108572650.09341  20339319.742    84445422.95541
  23655500.573    23655499.187   124310586.34241  23655505.416    96865415.55541
  25129658.314    25129657.269   132057251.84941  25129661.575   102901770.30341
  23886244.334    23886242.383   125523075.48141  23886247.477    97810191.35941
  22232719.509    22232718.603   118930080.92841  22232725.852    92501196.77741
  22508439.956    22508439.871   120531681.08541  22508446.309    93746893.19441
  21841006.478    21841006.193   116547900.17541  21841015.950    90648427.41441
  22862849.531    22862848.719   120145115.56541  22862854.962    93619564.58741
  20318786.472    20318786.636   108768102.93441  20318793.469    84597450.70741
  20838291.066    20838290.398   109506038.63541  20838292.779    85329382.91141
  21653993.243    21653993.222   115631152.24841  21654001.180    89935361.67741
  19994930.432    19994930.118   105074183.05841  19994933.914    81876019.24941
  21986920.855    21986919.834   117450224.00141  21986930.356    91350206.11841
  23872662.527    23872662.284   125451755.83941  23872668.792    97754606.97541
  23301759.415    23301759.701   122451602.09141  23301765.691    95416843.85441
  22331974.506    22331974.692   119502919.22841  22331982.553    92946747.22241
 12  1  1 17 34  0.0000000  0 18G19G32R18G18G 9G11R19R 4R 2G 3R 3G22
                                R13G14R12G31G 6R17
  22189981.594    22189980.768   116609173.27441  22189984.059    90864311.21241
  24763978.894    24763978.260   130135586.30541  24763984.648   101404372.12441
  20347044.137    20347043.246   108613927.13841  20347052.478    84477527.32041
  23670152.132    23670152.094   124387573.44041  23670154.789    96925405.44841
  25143286.955    25143287.865   132128879.47041  25143290.454   102957584.07341
  23869127.495    23869127.361   125433139.92041  23869131.941    97740111.71441
  22219380.110    22219378.928   118858723.31141  22219386.401    92445696.42241
  22497104.060    22497103.188   120470975.30741  22497110.706    93699677.62541
  21852052.577    21852051.856   116606839.32841  21852060.405    90694268.92941
  22875323.874    22875323.709   120210668.52541  22875329.322    93670644.78441
  20318636.345    20318635.469   108767293.78941  20318642.491    84596821.40441
  20843942.656    20843941.661   109535737.48341  20843944.071    85352524.86941
  21637570.980    21637570.789   115543460.45241  21637579.737    89867156.99141
  19996689.908    19996689.210   105083427.26641  19996692.990    81883222.54141
  21990117.630    21990116.336   117467298.32141  21990126.324    91363486.16941
  23852527.457    23852526.023   125345936.54441  23852530.737    97672150.53141
  23318870.570    23318871.236   122541525.10641  23318877.223    95486913.71341
  22355538.410    22355538.400   119629013.38141  22355546.608    93044820.31741
 12  1  1 17 34 30.0000000  0 18G19G32R18G18G 9G11R19R 4R 2G 3R 3G22
                                R13G14R12G31G 6R17
  22193622.978    22193621.240   116628306.28641  22193624.527    90879220.05241
  24749147.240    24749145.661   130057653.98141  24749151.278   101343645.66641
  20354920.498    20354919.788   108655972.43641  20354929.418    84510229.21441
  23684812.224    23684810.906   124464615.86641  23684816.187    96985438.45241
  25156982.091    25156977.517   132200845.94941  25156993.002   103013661.90841
  23852053.178    23852053.017   125343406.65441  23852057.260    97670189.72741
  22206161.806    22206161.469   118788018.20841  22206168.690    92390703.57641
  22485784.661    22485785.311   120410365.86341  22485792.745    93652537.00041
  21863107.100    21863106.153   116665827.93741  21863114.870    90740148.95541
  22887841.980    22887842.369   120276451.11741  22887848.358    93721903.94441
  20318514.251    20318513.925   108766642.68141  20318520.728    84596315.00741
  20849632.135    20849631.201   109565634.44441  20849633.465    85375821.20141
  21621240.873    21621240.161   115456252.78341  21621248.819    89799328.83441
  19998547.177    19998546.568   105093186.32241  19998550.156    81890827.01441
  21993458.345    21993457.420   117485145.86641  21993467.707    91377367.61641
  23832392.710    23832395.861   125240141.74041  23832397.700    97589713.13041
  23336005.985    23336005.069   122631570.24041  23336012.487    95557078.69641
  22379133.482    22379133.301   119755279.19041  22379142.295    93143026.93041
 12  1  1 17 35  0.0000000  0 18G19G32R18G18G 9G11R19R 4R 2G 3R 3G22
                                R13G14R12G31G 6R17
  22197371.127    22197369.258   116647998.56641  22197372.304    90894564.70841
  24734313.995    24734313.333   129979723.67141  24734322.622   101282920.81341
  20362940.862    20362940.191   108698784.04041  20362948.338    84543527.13041
  23699482.738    23699482.110   124541713.70041  23699488.282    97045514.58241
  25170740.005    25170742.924   132273149.41041  25170746.944   103070002.14941
  23835017.036    23835015.427   125253878.64541  23835020.491    97600427.69841
  22193067.133    22193067.065   118717968.85041  22193073.351    92336220.76641
  22474482.942    22474484.322   120349851.92441  22474490.168    93605470.66041
  21874170.038    21874169.541   116724866.13941  21874178.346    90786067.52241
  22900403.233    22900400.960   120342460.61641  22900409.359    93773339.87941
  20318421.946    20318421.773   108766148.93541  20318428.065    84595931.00241
  20855358.934    20855358.107   109595729.33241  20855360.275    85399271.76041
  21605000.628    21604999.781   115369534.32241  21605009.649    89731881.17641
  20000501.719    20000501.239   105103459.34141  20000504.863    81898831.97541
  21996943.207    21996942.373   117503766.33641  21996953.666    91391850.22841
  23812264.362    23812266.700   125134374.43741  23812269.850    97507297.15341
  23353166.060    23353163.533   122721734.43241  23353169.965    95627336.44141
  22402759.733    22402760.578   119881712.22641  22402770.587    93241363.61641
 12  1  1 17 35 30.0000000  0 18G19G32R18G18G 9G11R19R 4R 2G 3R 3G22
                                R13G14R12G31G 6R17
  22201223.831    22201222.352   116668248.91441  22201226.181    90910344.18541
  24719489.098    24719484.908   129901795.44241  24719495.364   101222197.55441
  20371103.135    20371102.758   108742359.50641  20371111.668    84577419.18541
  23714164.877    23714164.639   124618866.84141  23714169.540    97105633.87741
  25184565.194    25184563.471   132345787.87741  25184569.962   103126603.52441
  23818020.525    23818018.550   125164557.35241  23818022.768    97530826.67841
  22180095.117    22180093.870   118648578.07441  22180101.745    92282250.18641
  22463199.988    22463200.312   120289433.07441  22463208.902    93558478.27741
  21885243.765    21885242.669   116783953.94341  21885251.642    90832024.67541
  22913006.809    22913007.659   120408694.14141  22913012.254    93824950.33641
  20318359.323    20318359.349   108765812.22941  20318365.209    84595669.13741
  20861123.472    20861122.514   109626022.19041  20861125.102    85422876.57241
  21588854.320    21588853.192   115283308.79441  21588861.414    89664816.90241
  20002554.543    20002553.869   105114244.50841  20002557.426    81907236.01041
  22000574.260    22000573.398   117523159.54741  22000584.419    91406933.83341
  23792144.251    23792145.062   125028637.59541  23792150.650    97424904.90341
  23370343.373    23370343.909   122812014.40741  23370349.960    95697684.41641
  22426417.308    22426417.594   120008308.11241  22426427.913    93339826.93541
 12  1  1 17 36  0.0000000  0 18G19G32R18G18G 9G11R19R 4R 2G 3R 3G22
                                R13G14R12G31G 6R17
  22205181.403    22205181.559   116689055.80641  22205185.195    90926557.36241
  24704656.628    24704655.807   129823869.13841  24704662.341   101161475.83341
  20379409.834    20379409.097   108786696.87741  20379418.124    84611903.82941
  23728858.271    23728857.083   124696074.98741  23728861.893    97165796.04141
  25198451.738    25198450.580   132418759.17541  25198451.144   103183464.33741
  23801061.816    23801061.158   125075445.21041  23801065.153    97461388.68041
  22167246.191    22167246.288   118579848.76341  22167254.079    92228794.05241
  22451935.136    22451936.240   120229108.62241  22451942.894    93511559.27241
  21896326.280    21896325.176   116843091.08541  21896333.474    90878020.20041
  22925654.610    22925653.096   120475148.61141  22925657.186    93876732.96641
  20318325.545    20318325.166   108765631.93341  20318331.526    84595528.93041
  20866925.001    20866924.452   109656513.04241  20866927.141    85446635.67541
  21572798.919    21572798.268   115197581.18741  21572807.618    89598139.92441
  20004703.431    20004703.040   105125540.51041  20004706.827    81916038.10441
  22004348.296    22004348.423   117543325.25641  22004358.990    91422618.25541
  23772034.072    23772034.156   124922933.96541  23772036.333    97342538.54141
  23387545.106    23387544.995   122902407.04941  23387549.705    95768120.18641
  22450106.765    22450105.617   120135062.51541  22450115.551    93438413.51141
 12  1  1 17 36 30.0000000  0 19G19G32R18G18G 9G11G21R19R 4R 2G 3R 3
                                G22R13G14R12G31G 6R17
  22209248.523    22209247.224   116710418.06241  22209250.123    90943203.27141
  24689832.967    24689828.785   129745944.79141  24689834.854   101100755.67741
  20387857.927    20387856.871   108831792.83841  20387865.872    84646978.48741
  23743558.694    23743558.970   124773338.35041  23743564.326    97226001.22641
  25212401.406           0.000           0.00000         0.000           0.00000
  23784145.345    23784144.106   124986544.82741  23784148.741    97392115.67941
  25050132.951           0.000           0.00000         0.000           0.00000
  22154523.162    22154521.933   118511783.88941  22154528.845    92175854.73441
  22440689.575    22440689.189   120168878.13741  22440695.733    93464713.39941
  21907418.143    21907417.277   116902277.84741  21907425.064    90924054.34041
  22938339.738    22938340.482   120541821.41641  22938344.937    93928685.77841
  20318321.077    20318320.813   108765607.63841  20318326.594    84595510.05241
  20872765.334    20872764.251   109687201.84641  20872766.908    85470549.02441
  21556838.684    21556838.488   115112355.76141  21556846.926    89531853.50441
  20006950.395    20006949.829   105137345.94641  20006953.251    81925237.15741
  22008269.214    22008268.418   117564262.94141  22008278.197    91438903.11941
  23751922.177    23751926.214   124817266.53441  23751923.982    97260200.34041
  23404766.706    23404766.761   122992909.32141  23404773.553    95838641.40141
  22473822.235    22473821.698   120261970.98141  22473830.246    93537119.93941
 12  1  1 17 37  0.0000000  0 18G19G32R18G18G11G21R19R 4R 2G 3R 3G22
                                R13G14R12G31G 6R17
  22213419.174    22213417.414   116732334.05241  22213420.937    90960280.65841
  24675000.321    24675000.765   129668022.50841  24675007.985   101040037.03641
  20396447.351    20396446.575   108877644.37641  20396455.627    84682640.82841
  23758273.065    23758273.802   124850656.55741  23758276.804    97286249.13641
  23767269.689    23767267.557   124897858.31041  23767271.852    97323009.32141
  25069748.433           0.000           0.00000         0.000           0.00000
  22141923.514    22141922.367   118444386.36041  22141930.110    92123434.44941
  22429456.072    22429457.283   120108741.04941  22429465.602    93417940.14541
  21918517.130    21918516.649   116961514.30241  21918527.385    90970127.12941
  22951066.979    22951068.122   120608709.68141  22951074.176    93980806.44441
  20318346.002    20318345.352   108765738.74841  20318351.462    84595612.04341
  20878643.511    20878642.316   109718088.45241  20878644.350    85494616.50941
  21540974.618    21540973.794   115027636.65541  21540981.877    89465960.88441
  20009293.203    20009292.808   105149659.54741  20009296.684    81934832.18341
  22012332.891    22012332.367   117585972.22041  22012342.920    91455788.12341
  23731824.150    23731824.657   124711638.03341  23731824.443    97177892.48341
  23422010.506    23422008.105   123083517.91741  23422014.553    95909245.41941
  22497565.483    22497565.819   120389029.27441  22497574.520    93635942.90141
 12  1  1 17 37 30.0000000  0 18G19G32R18G18G11G21R19R 4R 2G 3R 3G22
                                R13G14R12G31G 6R17
  22217693.975    22217692.929   116754802.28841  22217696.288    90977788.36441
  24660170.538    24660173.405   129590101.92241  24660181.909   100979319.72041
  20405177.972    20405177.255   108924249.22341  20405185.736    84718889.03841
  23772996.980    23772996.214   124928029.46741  23773002.044    97346539.68541
  23750431.364    23750432.343   124809387.87441  23750436.591    97254071.35241
  25089381.605           0.000           0.00000         0.000           0.00000
  22129449.759    22129449.737   118377658.84441  22129456.307    92071535.28241
  22418243.744    22418245.425   120048696.51541  22418252.276    93371238.91141
  21929628.838    21929627.574   117020800.12341  21929636.077    91016238.28441
  22963837.347    22963836.749   120675810.32541  22963843.672    94033092.65041
  20318399.772    20318398.863   108766024.76741  20318405.086    84595834.52041
  20884558.792    20884557.524   109749172.79341  20884559.746    85518838.07241
  21525205.783    21525204.288   114943428.44941  21525212.539    89400465.65041
  20011733.065    20011732.405   105162479.63341  20011736.337    81944821.87241
  22016541.022    22016540.270   117608452.67941  22016550.126    91473272.94141
  23711735.582    23711731.068   124606051.45841  23711732.203    97095617.34341
  23439271.721    23439270.738   123174229.61341  23439277.572    95979929.77841
  22521338.158    22521337.220   120516232.85541  22521345.699    93734878.87841
 12  1  1 17 38  0.0000000  0 19G19G32R18G18G 9G11G21R19R 4R 2G 3R 3
                                G22R13G14R12G31G 6R17
  22222074.519    22222073.602   116777821.15541  22222076.816    90995725.13841
  24645344.095    24645342.718   129512183.28841  24645351.337   100918603.93141
  20414048.403    20414047.896   108971604.60041  20414057.506    84755721.01841
  23787730.021    23787731.150   125005457.01141  23787735.271    97406872.75641
  25254622.191           0.000           0.00000         0.000           0.00000
  23733639.406    23733638.843   124721135.80241  23733642.505    97185303.55041
  25109026.798           0.000           0.00000         0.000           0.00000
  22117102.394    22117100.956   118311604.17241  22117107.410    92020159.44841
  22407049.568    22407049.793   119988744.30341  22407057.725    93324609.47641
  21940747.726    21940746.817   117080135.32241  21940756.058    91062387.85041
  22976645.882    22976645.359   120743120.54541  22976651.524    94085542.14241
  20318480.824    20318480.928   108766465.24341  20318487.157    84596177.12041
  20890511.625    20890510.434   109780454.93441  20890512.539    85543213.75941
  21509531.986    21509531.255   114859735.26141  21509539.811    89335371.01941
  20014268.723    20014267.962   105175805.01641  20014271.851    81955205.29741
  22020894.090    22020892.967   117631703.49541  22020903.689    91491356.89741
  23691647.300    23691648.196   124500509.86941  23691651.734    97013377.18141
  23456553.131    23456551.447   123265041.53741  23456557.135    96050692.24541
  22545134.679    22545134.596   120643577.40141  22545142.957    93833924.49841
 12  1  1 17 38 30.0000000  0 18G19G32R18G18G 9G11R19R 4R 2G 3R 3G22
                                R13G14R12G31G 6R17
  22226559.372    22226557.876   116801389.32641  22226561.149    91014089.95141
  24630521.033    24630521.776   129434266.87141  24630525.277   100857889.93541
  20423059.868    20423059.532   109019708.09041  20423068.460    84793134.86341
  23802474.989    23802474.859   125082939.56041  23802480.686    97467248.73241
  25268819.165           0.000           0.00000         0.000           0.00000
  23716888.456    23716887.379   124633104.44441  23716890.215    97116707.70441
  22104879.041    22104878.527   118246225.36941  22104886.517    91969309.29841
  22395870.364    22395870.799   119928883.71341  22395877.893    93278051.27941
  21951876.389    21951875.403   117139519.89641  21951884.238    91108575.82841
  22989493.576    22989493.396   120810637.43141  22989499.057    94138152.68541
  20318592.235    20318591.707   108767060.04541  20318598.512    84596639.76841
  20896500.987    20896500.248   109811934.99941  20896502.707    85567743.68841
  21493956.069    21493955.648   114776561.99041  21493964.108    89270680.73441
  20016900.902    20016900.085   105189634.42541  20016903.524    81965981.46841
  22025390.613    22025389.919   117655724.68541  22025401.176    91510040.07441
  23671572.652    23671571.596   124395016.33641  23671577.489    96931174.56441
  23473852.065    23473851.669   123355950.54741  23473858.125    96121530.35241
  22568956.397    22568957.309   120771058.69441  22568965.671    93933076.46441
 12  1  1 17 39  0.0000000  0 18G19G32R18G18G 9G11R19R 4R 2G 3R 3G22
                                R13G14R12G31G 6R17
  22231148.589    22231147.561   116825505.19941  22231150.831    91032881.52241
  24615690.406    24615690.201   129356352.67941  24615699.105   100797177.63041
  20432211.211    20432210.435   109068556.75741  20432220.027    84831128.28541
  23817230.407    23817228.942   125160476.80741  23817232.495    97527667.34941
  25283071.308           0.000           0.00000         0.000           0.00000
  23700177.210    23700177.399   124545296.35541  23700181.044    97048285.85541
  22092784.964    22092784.314   118181525.28141  22092790.120    91918987.02241
  22384708.247    22384709.420   119869114.47341  22384716.680    93231564.14841
  21963013.920    21963013.878   117198954.40041  21963021.793    91154802.67841
  23002383.000    23002380.607   120878358.50441  23002386.961    94190922.27641
  20318731.621    20318731.774   108767808.61841  20318738.124    84597222.01141
  20902529.625    20902528.453   109843612.76541  20902530.986    85592427.66741
  21478478.165    21478477.149   114693912.86741  21478486.240    89206398.10741
  20019626.910    20019626.889   105203966.49541  20019630.684    81977149.32241
  22030031.237    22030030.592   117680515.45941  22030040.768    91529321.78341
  23651506.544    23651505.657   124289573.76241  23651508.424    96849011.62841
  23491168.382    23491167.986   123446953.69341  23491175.732    96192441.81841
  22592804.899    22592804.787   120898672.50141  22592814.547    94032331.48741
 12  1  1 17 39 30.0000000  0 19G19G32R18G18G 9G11G21R19R 4R 2G 3R 3
                                G22R13G14R12G31G 6R17
  22235841.800    22235840.556   116850166.98241  22235843.255    91052098.50441
  24600867.645    24600866.789   129278440.18841  24600872.412   100736466.66541
  20441501.603    20441500.930   109118147.42141  20441509.514    84869698.80241
  23831993.823    23831993.126   125238068.14841  23831997.858    97588128.08141
  25297397.235           0.000           0.00000         0.000           0.00000
  23683510.650    23683510.553   124457713.31141  23683514.010    96980039.34241
  25168037.211           0.000           0.00000         0.000           0.00000
  22080818.978    22080817.360   118117506.11241  22080823.070    91869194.37241
  22373565.263    22373564.717   119809435.36441  22373572.566    93185147.13641
  21974162.932    21974161.185   117258438.33341  21974170.131    91201067.90941
  23015305.349    23015305.681   120946280.10841  23015312.319    94243848.17541
  20318900.130    20318900.027   108768710.12841  20318907.205    84597923.20241
  20908595.218    20908594.187   109875488.07741  20908596.787    85617265.57441
  21463100.672    21463099.216   114611791.66241  21463107.441    89142526.09541
  20022450.381    20022449.535   105218799.16841  20022453.346    81988707.25541
  22034815.844    22034815.422   117706074.78441  22034826.657    91549201.26741
  23631451.234    23631451.035   124184184.75141  23631455.286    96766890.40241
  23508503.368    23508503.544   123538047.17841  23508509.161    96263423.72341
  22616675.111    22616676.742   121026413.87441  22616686.207    94131685.70141
 12  1  1 17 40  0.0000000  0 19G19G32R18G18G 9G11G21R19R 4R 2G 3R 3
                                G22R13G14R12G31G 6R17
  22240637.829    22240636.756   116875373.22741  22240640.607    91071739.73441
  24586041.625    24586040.997   129200529.73541  24586047.509   100675757.20241
  20450929.855    20450928.962   109168477.33441  20450937.821    84908844.29841
  23846771.117    23846771.192   125315713.60841  23846773.974    97648630.99241
  25311770.739           0.000           0.00000         0.000           0.00000
  23666888.659    23666887.922   124370357.84141  23666891.830    96911970.20041
  25187734.787           0.000           0.00000         0.000           0.00000
  22068977.725    22068976.402   118054170.83141  22068983.030    91819933.61841
  22362436.715    22362436.204   119749846.25441  22362443.944    93138800.08141
  21985318.290    21985317.807   117317971.85441  21985326.009    91247371.72441
  23028268.417    23028267.977   121014399.91441  23028274.190    94296928.50241
  20319097.358    20319097.273   108769764.45641  20319103.641    84598743.24441
  20914698.388    20914697.474   109907561.22141  20914700.051    85642257.63241
  21447820.137    21447819.746   114530203.26641  21447828.231    89079068.45941
  20025367.700    20025367.107   105234131.30941  20025370.783    82000654.38841
  22039744.768    22039744.414   117732402.40541  22039755.635    91569678.33341
  23611408.830    23611406.780   124078852.42041  23611411.536    96684813.28841
  23525855.075    23525855.374   123629228.25141  23525860.191    96334473.85441
  22640572.019    22640570.764   121154278.91141  22640581.362    94231136.13041
 12  1  1 17 40 30.0000000  0 18G19G32R18G18G 9G11R19R 4R 2G 3R 3G22
                                R13G14R12G31G 6R17
  22245537.825    22245536.731   116901121.95341  22245539.481    91091803.67041
  24571213.076    24571214.640   129122621.15041  24571219.687   100615049.25741
  20460496.856    20460496.256   109219543.69541  20460504.344    84948562.58641
  23861558.317    23861555.826   125393413.12841  23861562.387    97709176.04641
  25326207.373           0.000           0.00000         0.000           0.00000
  23650306.421    23650307.851   124283231.91641  23650312.035    96844079.89341
  22057265.379    22057265.495   117991521.94341  22057272.156    91771206.73541
  22351326.409    22351326.294   119690346.33441  22351331.847    93092522.41541
  21996484.497    21996483.213   117377554.92941  21996491.115    91293714.09441
  23041269.586    23041269.758   121082714.84141  23041273.469    94350160.87841
  20319322.383    20319322.276   108770970.93441  20319329.142    84599681.63341
  20920839.563    20920838.604   109939831.98741  20920840.568    85667403.68541
  21432641.879    21432641.527   114449151.53041  21432650.165    89016028.23941
  20028380.058    20028379.488   105249961.16041  20028383.178    82012989.35341
  22044815.853    22044816.204   117759497.13941  22044826.088    91590752.02241
  23591372.714    23591374.412   123973579.67041  23591379.842    96602782.66141
  23543222.367    23543221.394   123720493.91141  23543228.161    96405589.87041
  22664488.496    22664488.081   121282263.14141  22664497.746    94330679.23141
 12  1  1 17 41  0.0000000  0 18G19G32R18G18G 9G11R19R 4R 2G 3R 3G22
                                R13G14R12G31G 6R17
  22250540.563    22250539.858   116927411.80341  22250542.923    91112289.25741
  24556391.610    24556389.492   129044714.60641  24556395.945   100554342.89841
  20470199.766    20470199.262   109271343.98441  20470208.475    84988851.69841
  23876352.563    23876351.802   125471167.00341  23876357.124    97769763.42141
  25340707.127           0.000           0.00000         0.000           0.00000
  23633773.058    23633772.714   124196338.15841  23633775.684    96776370.50341
  22045683.383    22045682.005   117929562.16941  22045689.597    91723015.83141
  22340229.330    22340229.650   119630935.09141  22340238.393    93046313.71741
  22007657.794    22007658.140   117437187.75541  22007667.996    91340095.15941
  23054305.763    23054305.135   121151221.82941  23054310.413    94403542.89841
  20319576.665    20319576.236   108772329.40241  20319583.012    84600738.23041
  20927018.795    20927017.534   109972300.29541  20927019.416    85692703.66241
  21417565.725    21417564.729   114368641.05641  21417573.142    88953409.01841
  20031486.806    20031486.328   105266287.40641  20031490.187    82025711.11141
  22050031.283    22050031.019   117787358.56641  22050043.318    91612422.04641
  23571357.412    23571354.943   123868369.34341  23571358.148    96520800.68141
  23560605.635    23560604.806   123811840.90641  23560610.317    96476769.25141
  22688427.343    22688427.164   121410362.13941  22688436.883    94430311.59141
 12  1  1 17 41 30.0000000  0 18G19G32R18G18G 9G11R19R 4R 2G 3R 3G22
                                R13G14R12G31G 6R17
  22255646.237    22255645.254   116954241.47241  22255647.878    91133195.48241
  24541563.672    24541563.985   128966810.32641  24541570.353   100493638.29541
  20480040.465    20480039.898   109323874.46541  20480049.527    85029708.74441
  23891158.916    23891157.232   125548975.10641  23891163.370    97830393.08341
  25355264.464           0.000           0.00000         0.000           0.00000
  23617282.857    23617281.842   124109679.11041  23617285.561    96708843.99441
  22034228.563    22034227.853   117868294.48041  22034235.067    91675363.23141
  22329153.709    22329153.673   119571612.53041  22329160.168    93000173.97041
  22018844.518    22018843.308   117496870.88341  22018851.920    91386515.33341
  23067378.331    23067377.235   121219918.65541  23067385.442    94457072.80341
  20319858.004    20319858.455   108773839.65041  20319864.345    84601912.88841
  20933234.413    20933233.152   110004966.56341  20933235.537    85718157.88741
  21402590.613    21402589.337   114288675.78941  21402598.621    88891213.83941
  20034687.898    20034687.337   105283108.95441  20034690.833    82038818.82441
  22055392.198    22055391.073   117815986.16541  22055401.036    91634687.94441
  23551344.368    23551343.921   123763224.74441  23551349.688    96438869.89241
  23578003.002    23578002.413   123903266.36041  23578008.865    96548009.79541
  22712387.173    22712385.812   121538572.09441  22712394.818    94530030.24941
 12  1  1 17 42  0.0000000  0 18G19G32R18G18G 9G11R19R 4R 2G 3R 3G22
                                R13G14R12G31G 6R17
  22260852.942    22260852.571   116981608.88941  22260856.602    91154520.73941
  24526739.818    24526740.314   128888908.01741  24526745.650   100432935.20741
  20490018.356    20490017.832   109377132.53841  20490026.012    85071131.68041
  23905974.932    23905975.509   125626837.12341  23905980.584    97891064.73741
  25369886.409           0.000           0.00000         0.000           0.00000
  23600836.360    23600835.768   124023256.77041  23600840.196    96641501.93841
  22022906.203    22022904.688   117807721.16641  22022912.582    91628250.69141
  22318092.505    22318091.148   119512377.72841  22318097.241    92954102.48341
  22030039.020    22030037.806   117556603.79141  22030044.589    91432974.24441
  23080486.545    23080486.394   121288802.07641  23080491.804    94510748.18241
  20320169.092    20320168.329   108775501.01341  20320175.255    84603205.07141
  20939487.975    20939486.985   110037830.51441  20939489.403    85743766.16041
  21387717.773    21387717.723   114209260.21941  21387726.186    88829446.19241
  20037982.910    20037982.172   105300423.58141  20037985.809    82052310.75141
  22060892.119    22060893.020   117845378.38341  22060904.045    91657548.55441
  23531347.721    23531349.372   123658148.25541  23531353.115    96356992.22341
  23595414.313    23595413.934   123994766.88141  23595420.483    96619308.84141
  22736365.357    22736365.635   121666888.22941  22736374.006    94629831.49341
 12  1  1 17 42 30.0000000  0 18G19G32R18G18G11G 1R19R 4R 2G 3R 3G22
                                R13G14R12G31G 6R17
  22266164.232    22266163.105   117009512.12741  22266165.580    91176263.50241
  24511917.883    24511917.142   128811007.82041  24511922.532   100372233.80041
  20500131.358    20500129.765   109431115.19341  20500139.340    85113118.16941
  23920802.161    23920801.507   125704752.96441  23920807.731    97951778.32341
  23584438.154    23584436.442   123937073.32841  23584439.541    96574346.04541
  24660300.757    24660298.688   129590758.45041  24660306.509   100979818.79341
  22011712.963    22011711.612   117747844.60841  22011718.965    91581680.05141
  22307043.665    22307044.888   119453230.02241  22307052.571    92908098.78841
  22041241.566    22041240.288   117616386.54041  22041250.180    91479471.94741
  23093628.798    23093627.621   121357869.18141  23093634.049    94564566.66141
  20320506.763    20320507.109   108777313.19241  20320514.329    84604614.55641
  20945779.389    20945778.323   110070892.10341  20945781.021    85769528.43541
  21372950.077    21372949.357   114130398.53141  21372958.380    88768109.39541
  20041371.388    20041370.691   105318230.01541  20041374.415    82066185.90441
  22066539.163    22066538.888   117875534.82741  22066549.397    91681003.55841
  23511368.367    23511367.369   123553143.68241  23511373.505    96275170.53741
  23612841.049    23612840.279   124086339.40841  23612846.381    96690664.00141
  22760364.944    22760363.754   121795306.30541  22760372.711    94729711.98341
 12  1  1 17 43  0.0000000  0 19G19G32R18G18R14G11G 1R19R 4R 2G 3R 3
                                G22R13G14R12G31G 6R17
  22271574.305    22271573.887   117037949.65941  22271577.292    91198422.63641
  24497092.434    24497092.538   128733109.81341  24497099.308   100311534.05541
  20510378.641    20510378.088   109485819.16741  20510386.779    85155665.68641
  23935639.316    23935639.664   125782722.71441  23935643.958    98012533.96541
  23495012.805    23495012.723   125241650.96841  23495027.404    97410195.86341
  23568081.181    23568081.683   123851131.24241  23568085.432    96507378.20941
  24640601.249    24640601.355   129487242.36541  24640607.134   100899156.90541
  22000649.545    22000649.294   117688667.43241  22000655.557    91535653.37841
  22296015.237    22296016.185   119394169.11241  22296022.768    92862162.55841
  22052453.108    22052453.321   117676219.48441  22052461.324    91526008.63641
  23106806.998    23106805.329   121427116.97341  23106811.091    94618525.96541
  20320874.101    20320873.617   108779275.80441  20320880.021    84606141.05341
  20952108.834    20952107.699   110104151.50041  20952109.720    85795444.84941
  21358286.865    21358285.845   114052095.00041  21358293.843    88707206.68041
  20044852.733    20044852.314   105336526.45441  20044855.952    82080442.88041
  22072327.509    22072327.241   117906454.48141  22072336.960    91705052.19241
  23491398.557    23491400.320   123448213.73041  23491403.102    96193407.00541
  23630279.099    23630278.439   124177981.16541  23630286.652    96762073.10241
  22784378.355    22784380.312   121923822.17041  22784390.029    94829668.51441
 12  1  1 17 43 30.0000000  0 19G19G32R18G18R14G11G 1R19R 4R 2G 3R 3
                                G22R13G14R12G31G 6R17
  22277087.861    22277086.789   117066919.67741  22277090.364    91220996.66041
  24482268.636    24482269.678   128655214.21441  24482275.388   100250836.18941
  20520761.415    20520760.470   109541242.02841  20520769.585    85198772.33941
  23950487.453    23950486.757   125860746.23441  23950491.956    98073331.46941
  23470910.718    23470910.541   125113180.61741  23470924.480    97310274.60041
  23551775.325    23551774.861   123765432.75841  23551776.959    96440600.19141
  24620914.263    24620914.342   129383786.74541  24620921.052   100818542.09241
  21989719.583    21989718.193   117630192.36141  21989724.586    91490172.77741
  22285003.150    22285003.251   119335194.39741  22285010.335    92816293.39041
  22063676.492    22063676.014   117736102.74041  22063684.468    91572584.47841
  23120018.764    23120017.218   121496542.15441  23120026.396    94672623.45041
  20321268.594    20321268.407   108781388.55341  20321275.245    84607784.29141
  20958474.894    20958473.879   110137608.46441  20958476.748    85821515.20041
  21343728.484    21343727.465   113974353.79541  21343736.178    88646741.32441
  20048427.331    20048427.026   105355311.34441  20048430.563    82095080.46141
  22078258.762    22078258.437   117938136.61041  22078268.957    91729693.81041
  23471447.894    23471447.396   123343361.25141  23471450.157    96111703.82441
  23647730.770    23647731.118   124269688.90641  23647737.918    96833533.56141
  22808412.771    22808413.879   122052431.53841  22808423.935    94929697.78341
 12  1  1 17 44  0.0000000  0 19G19G32R18G18R14G11G 1R19R 4R 2G 3R 3
                                G22R13G14R12G31G 6R17
  22282700.460    22282700.423   117096420.17041  22282704.231    91243984.04141
  24467447.644    24467446.924   128577320.76041  24467452.823   100190140.01441
  20531277.212    20531277.021   109597379.23541  20531286.573    85242434.60541
  23965344.983    23965344.465   125938823.38241  23965349.421    98134170.73941
  23446805.509    23446805.752   124984677.79341  23446814.979    97210328.17641
  23535513.680    23535512.792   123679980.04441  23535515.909    96374013.69241
  24601238.960    24601238.372   129280393.59341  24601246.032   100737976.05441
  21978919.397    21978918.544   117572421.35741  21978924.593    91445239.81341
  22274006.131    22274006.275   119276305.05841  22274012.731    92770490.63441
  22074907.345    22074906.706   117796036.03941  22074915.411    91619199.23541
  23133257.691    23133257.563   121566141.85541  23133265.351    94726856.92841
  20321690.726    20321690.918   108783651.00841  20321697.337    84609543.98641
  20964879.283    20964878.477   110171262.89041  20964880.636    85847739.42141
  21329275.824    21329274.774   113897178.95741  21329283.542    88586716.50441
  20052094.969    20052094.288   105374583.06741  20052097.944    82110097.40241
  22084331.304    22084330.346   117970579.63341  22084341.839    91754927.29141
  23451510.150    23451509.826   123238588.92541  23451514.973    96030063.13441
  23665194.427    23665194.855   124361459.23041  23665201.304    96905042.76441
  22832464.177    22832464.565   122181129.85941  22832474.995    95029796.26241
 12  1  1 17 44 30.0000000  0 19G19G32R18G18R14G11G 1R19R 4R 2G 3R 3
                                G22R13G14R12G31G 6R17
  22288416.272    22288415.445   117126449.94441  22288418.063    91267383.87041
  24452626.816    24452625.111   128499429.66741  24452631.453   100129445.61841
  20541927.439    20541926.693   109654228.56941  20541936.375    85286650.73741
  23980213.209    23980212.778   126016954.19841  23980217.559    98195051.86041
  23422691.476    23422692.764   124856146.22941  23422705.066    97110359.30841
  23519298.974    23519298.967   123594775.96041  23519302.593    96307620.91941
  24581576.007    24581575.714   129177065.39041  24581583.408   100657460.58241
  21968251.734    21968250.606   117515357.26441  21968258.068    91400856.62341
  22263026.105    22263026.190   119217501.06741  22263031.553    92724754.23441
  22086149.071    22086148.095   117856020.10241  22086156.431    91665853.45541
  23146539.989    23146536.340   121635914.02241  23146545.071    94781224.71241
  20322142.088    20322141.765   108786063.03641  20322148.660    84611420.01341
  20971321.477    20971320.114   110205115.40541  20971322.556    85874118.00141
  21314930.338    21314929.097   113820574.82641  21314937.557    88527135.54141
  20055854.395    20055853.887   105394340.31241  20055857.537    82125492.66941
  22090547.879    22090547.074   118003782.95741  22090557.620    91780752.10841
  23431588.022    23431588.489   123133900.11541  23431592.980    95948487.50841
  23682669.778    23682668.914   124453289.44241  23682674.902    96976598.68141
  22856530.998    22856531.438   122309913.35841  22856540.687    95129960.97341
 12  1  1 17 45  0.0000000  0 19G19G32R18G18R14G11G 1R19R 4R 2G 3R 3
                                G22R13G14R12G31G 6R17
  22294230.546    22294229.680   117157006.59841  22294233.867    91291194.24941
  24437804.407    24437802.545   128421540.77041  24437810.264   100068752.97941
  20552709.633    20552708.720   109711786.62141  20552717.812    85331418.08641
  23995090.381    23995089.957   126095138.29841  23995095.948    98255974.48441
  23398576.716    23398574.428   124727590.61541  23398588.505    97010371.69841
  23503133.065    23503132.443   123509821.97141  23503136.943    96241423.01741
  24561926.855    24561926.612   129073803.99441  24561932.977   100576997.16041
  21957715.442    21957715.406   117459002.24941  21957722.438    91357024.95041
  22252060.197    22252058.820   119158781.43441  22252066.628    92679083.45941
  22097399.739    22097398.572   117916054.52341  22097407.283    91712546.84141
  23159848.993    23159846.620   121705855.09341  23159857.126    94835724.26241
  20322619.619    20322619.859   108788624.04741  20322626.573    84613411.90841
  20977800.498    20977799.617   110239165.47241  20977802.257    85900650.51741
  21300691.537    21300691.098   113744545.13041  21300699.375    88468001.38241
  20059706.370    20059705.496   105414581.13541  20059709.370    82141264.74941
  22096904.630    22096904.914   118037745.15541  22096915.062    91807167.14141
  23411683.520    23411683.665   123029297.57441  23411687.634    95866979.14141
  23700154.630    23700154.010   124545176.15541  23700160.051    97048198.61941
  22880612.485    22880613.047   122438777.28741  22880622.633    95230188.26041
 12  1  1 17 45 30.0000000  0 19G19G32R18G18R14G11G 1R19R 4R 2G 3R 3
                                G22R13G14R12G31G 6R17
  22300145.833    22300144.885   117188088.24341  22300147.897    91315413.70141
  24422982.178    24422982.072   128343654.25841  24422987.559   100008062.12741
  20563625.013    20563624.504   109770050.41241  20563633.040    85376734.36341
  24009979.325    24009977.699   126173375.87941  24009983.580    98316938.76341
  23374457.342    23374457.579   124599015.20141  23374464.509    96910368.76241
  23487014.451    23487014.619   123425120.65841  23487018.134    96175422.01241
  24542289.528    24542287.446   128970611.85841  24542296.630   100496587.74241
  21947315.591    21947314.480   117403358.71341  21947318.595    91313746.64141
  22241110.690    22241109.748   119100146.06441  22241115.498    92633478.19141
  22108658.018    22108657.621   117976139.88341  22108665.967    91759279.86341
  23173192.028    23173189.275   121775962.39341  23173196.556    94890353.30441
  20323126.358    20323126.590   108791334.00241  20323132.685    84615519.65541
  20984318.530    20984317.179   110273413.43241  20984319.464    85927337.23141
  21286562.115    21286561.878   113669094.06541  21286570.158    88409317.24841
  20063649.781    20063649.223   105435304.18941  20063652.861    82157412.59241
  22103404.893    22103404.835   118072465.46241  22103415.593    91834171.83241
  23391794.806    23391794.575   122924784.66041  23391798.572    95785540.57741
  23717651.696    23717650.658   124637116.68541  23717656.485    97119840.42141
  22904707.442    22904708.087   122567717.64541  22904719.253    95330475.02241
 12  1  1 17 46  0.0000000  0 19G19G32R18G18R14G11G 1R19R 4R 2G 3R 3
                                G22R13G14R12G31G 6R17
  22306160.010    22306158.870   117219693.15541  22306162.024    91340040.91341
  24408160.063    24408160.935   128265770.07141  24408166.067    99947373.12441
  20574669.959    20574669.928   109829015.87741  20574679.274    85422596.36541
  24024876.745    24024877.168   126251666.70341  24024880.572    98377944.59241
  23350330.904    23350331.496   124470424.17441  23350345.234    96810353.58841
  23470946.930    23470945.732   123340674.20541  23470948.833    96109619.59541
  24522665.887    24522664.719   128867490.91341  24522672.619   100416233.77241
  21937046.003    21937045.397   117348428.79441  21937051.420    91271023.37941
  22230175.089    22230175.328   119041593.90741  22230183.461    92587937.68741
  22119930.462    22119928.805   118036275.75641  22119936.803    91806052.15941
  23186562.352    23186561.109   121846232.34041  23186567.323    94945108.99541
  20323660.509    20323660.336   108794192.10641  20323667.193    84617742.63341
  20990872.539    20990871.529   110307858.99441  20990873.804    85954177.92641
  21272541.209    21272540.442   113594225.63841  21272550.234    88351086.31241
  20067684.065    20067683.837   105456507.18141  20067687.630    82173934.41541
  22110044.191    22110044.917   118107942.23041  22110056.595    91861764.87241
  23371924.399    23371924.177   122820363.76441  23371927.762    95704173.72241
  23735155.332    23735155.367   124729107.50341  23735161.675    97191521.43741
  22928819.709    22928817.231   122696729.91141  22928828.143    95430817.70141
 12  1  1 17 46 30.0000000  0 19G19G32R18G18R14G11G 1R19R 4R 2G 3R 3
                                G22R13G14R12G31G 6R17
  22312272.165    22312271.877   117251819.29141  22312275.537    91365074.27441
  24393342.270    24393342.245   128187888.51041  24393346.691    99886686.13741
  20585848.691    20585847.544   109888680.27341  20585856.762    85469002.00341
  24039784.988    24039785.579   126330010.79241  24039790.745    98438991.88641
  23326205.200    23326205.765   124341821.34341  23326219.559    96710329.19941
  23454925.486    23454924.344   123256485.13041  23454928.360    96044017.71641
  24503055.518    24503054.208   128764443.60641  24503063.751   100335937.20341
  21926912.015    21926910.402   117294214.95741  21926916.749    91228857.06941
  22219254.671    22219256.306   118983124.99541  22219263.900    92542461.91241
  22131206.135    22131205.255   118096462.79441  22131214.237    91852864.27541
  23199964.512    23199965.914   121916662.77241  23199969.279    94999989.85841
  20324221.462    20324221.787   108797198.57141  20324228.347    84620080.98941
  20997464.833    20997464.120   110342502.36341  20997466.664    85981172.75441
  21258631.204    21258630.869   113519943.99141  21258638.056    88293311.72541
  20071810.371    20071809.934   105478188.94941  20071813.484    82190829.31041
  22116829.118    22116829.211   118144174.55241  22116839.826    91889945.53141
  23352071.584    23352072.485   122716038.41641  23352075.401    95622881.33741
  23752670.980    23752670.731   124821145.88041  23752676.600    97263239.53841
  22952938.823    22952937.901   122825810.14141  22952950.017    95531213.23741
 12  1  1 17 47  0.0000000  0 19G19G32R18G18R14G11G 1R19R 4R 2G 3R 3
                                G22R13G14R12G31G 6R17
  22318485.396    22318484.400   117284464.65041  22318487.654    91390512.23141
  24378523.379    24378523.176   128110009.59041  24378529.702    99826001.26841
  20597155.576    20597154.983   109949039.48541  20597164.162    85515948.02541
  24054703.798    24054704.273   126408408.01541  24054708.345    98500080.58141
  23302079.855    23302079.023   124213210.94841  23302092.765    96610299.02141
  23438954.115    23438953.517   123172555.84941  23438955.894    95978618.27741
  24483462.024    24483458.288   128661472.06441  24483469.836   100255699.68441
  21916909.213    21916909.505   117240719.56941  21916916.250    91187249.54241
  22208352.485    22208352.966   118924738.36341  22208358.851    92497050.11141
  22142496.374    22142496.426   118156701.14641  22142505.051    91899716.28241
  23213396.804    23213396.571   121987250.50941  23213401.259    95054993.21741
  20324811.995    20324811.306   108800352.99741  20324817.493    84622534.44041
  21004095.516    21004094.278   110377343.58941  21004096.598    86008321.75541
  21244831.785    21244830.954   113446253.10341  21244839.282    88235996.63441
  20076026.215    20076026.246   105500347.65241  20076030.063    82208095.84741
  22123753.449    22123752.771   118181161.22641  22123764.485    91918712.94241
  23332238.599    23332237.765   122611811.43741  23332240.873    95541665.59641
  23770193.493    23770192.769   124913228.68541  23770198.833    97334992.24641
  22977072.482    22977072.315   122954954.10241  22977081.903    95631658.32541
 12  1  1 17 47 30.0000000  0 19G19G32R18G18R14G11G 1R19R 4R 2G 3R 3
                                G22R13G14R12G31G 6R17
  22324796.102    22324795.525   117317627.74041  22324798.810    91416353.59541
  24363704.882    24363702.362   128032133.20741  24363707.308    99765318.34441
  20608592.863    20608591.751   110010091.04641  20608601.127    85563432.56241
  24069633.238    24069632.162   126486858.02541  24069634.549    98561210.40741
  23277952.206    23277952.193   124084597.34541  23277960.723    96510266.43441
  23423032.965    23423031.838   123088888.30141  23423036.272    95913422.80141
  24463882.047    24463883.684   128558578.43241  24463889.304   100175522.84141
  21907043.818    21907043.673   117187944.26341  21907050.330    91146202.07241
  22197465.572    22197465.720   118866433.73741  22197472.478    92451702.10141
  22153795.582    22153794.151   118216990.55341  22153802.529    91946608.02441
  23226862.056    23226857.662   122057993.06641  23226863.514    95110117.32241
  20325428.694    20325428.090   108803654.76041  20325434.445    84625102.47041
  21010763.232    21010761.994   110412382.44141  21010764.337    86035624.75341
  21231142.698    21231141.518   113373157.34141  21231150.367    88179144.42541
  20080333.821    20080333.500   105522981.35941  20080337.103    82225732.51441
  22130817.227    22130817.122   118218900.55841  22130827.781    91948065.71841
  23312422.364    23312424.403   122507685.56441  23312427.506    95460528.60841
  23787724.756    23787725.063   125005352.60341  23787730.967    97406776.98241
  23001219.973    23001217.038   123084157.13841  23001227.084    95732149.39141
 12  1  1 17 48  0.0000000  0 19G19G32R18G18R14G11G 1R19R 4R 2G 3R 3
                                G22R13G14R12G31G 6R17
  22331205.399    22331204.194   117351306.21341  22331206.724    91442596.55741
  24348885.250    24348882.891   127954259.77541  24348887.950    99704637.76041
  20620158.706    20620157.945   110071831.81041  20620167.109    85611453.14141
  24084570.880    24084568.969   126565361.28341  24084576.320    98622381.76841
  23253827.876    23253824.871   123955984.84441  23253834.588    96410234.64141
  23407160.966    23407161.138   123005485.22341  23407163.376    95848433.41341
  24444317.006    24444317.527   128455765.36141  24444326.092   100095408.75241
  21897313.716    21897313.664   117135891.97341  21897319.980    91105716.95941
  22186592.597    22186593.263   118808210.90341  22186601.108    92406417.72641
  22165103.376    22165102.234   118277331.90741  22165109.932    91993540.14541
  23240349.870    23240349.281   122128887.47741  23240355.993    95165359.61841
  20326071.536    20326072.080   108807104.21641  20326079.216    84627785.38241
  21017468.288    21017467.146   110447619.33341  21017470.017    86063082.07041
  21217566.762    21217566.150   113300660.45341  21217574.664    88122758.01141
  20084731.259    20084730.704   105546088.79741  20084734.364    82243738.31741
  22138024.138    22138023.363   118257391.80441  22138034.033    91978003.37641
  23292628.576    23292628.720   122403664.32441  23292632.941    95379473.19241
  23805262.554    23805261.412   125097515.29141  23805268.889    97478591.96441
  23025375.026    23025373.579   123213415.73641  23025382.859    95832683.63841
 12  1  1 17 48 30.0000000  0 19G19G32R18G18R14G11G 1R19R 4R 2G 3R 3
                                G22R13G14R12G31G 6R17
  22337712.030    22337710.016   117385498.14541  22337713.261    91469239.60241
  24334064.875    24334064.222   127876389.06241  24334071.009    99643959.26441
  20631852.974    20631852.042   110134257.42241  20631861.633    85660006.37841
  24099522.237    24099518.553   126643917.69941  24099525.549    98683594.48741
  23229699.292    23229699.198   123827378.00341  23229710.640    96310207.15441
  23391342.142    23391341.202   122922348.33541  23391343.884    95783651.40041
  24424767.353    24424766.543   128353034.70641  24424776.217   100015358.92941
  21887718.155    21887717.121   117084564.26941  21887726.126    91065795.42241
  22175735.763    22175735.065   118750068.93041  22175741.988    92361196.23041
  22176420.934    22176419.717   118337724.97441  22176428.660    92040512.50741
  23253865.158    23253868.473   122199930.49441  23253872.552    95220717.71841
  20326744.765    20326744.547   108810700.72741  20326751.072    84630582.66841
  21024211.262    21024210.172   110483053.86141  21024212.610    86090693.37641
  21204102.707    21204101.890   113228766.20341  21204110.193    88066840.29441
  20089217.752    20089217.521   105569667.94041  20089221.197    82262111.68541
  22145369.557    22145368.608   118296633.13041  22145380.128    92008524.40841
  23272854.788    23272854.271   122299750.33441  23272858.657    95298501.33641
  23822807.196    23822805.445   125189713.06241  23822813.554    97550434.20141
  23049536.756    23049537.221   123342725.09741  23049548.872    95933257.34941
 12  1  1 17 49  0.0000000  0 19G19G32R18G18R14G11G 1R19R 4R 2G 3R 3
                                G22R13G14R12G31G 6R17
  22344315.235    22344314.388   117420201.41541  22344317.297    91496281.12941
  24319247.796    24319247.747   127798521.13041  24319252.607    99583282.99941
  20643675.324    20643674.451   110197364.91841  20643683.127    85709089.96841
  24114480.471    24114477.963   126722526.77741  24114484.443    98744848.22241
  23205574.864    23205573.116   123698780.23341  23205584.821    96210186.73841
  23375573.290    23375572.024   122839479.89941  23375574.938    95719078.61441
  24405235.256    24405235.387   128250388.77541  24405243.457    99935375.12341
  21878259.798    21878259.164   117033963.48741  21878265.311    91026439.24041
  22164891.434    22164891.739   118692007.37941  22164899.418    92316037.27841
  22187748.296    22187747.136   118398169.94241  22187756.686    92087525.21641
  23267413.889    23267413.765   122271119.02141  23267422.623    95276189.26841
  20327443.467    20327443.267   108814443.99741  20327450.442    84633494.09541
  21030991.773    21030990.890   110518686.18541  21030993.253    86118458.82341
  21190753.908    21190752.496   113157478.94441  21190761.798    88011394.69041
  20093794.331    20093793.929   105593717.31041  20093797.487    82280851.45841
  22152856.254    22152855.546   118336623.04441  22152866.366    92039627.64341
  23253101.410    23253101.452   122195946.69641  23253104.990    95217615.44141
  23840356.288    23840357.769   125281943.07141  23840363.000    97622301.55941
  23073712.504    23073710.781   123472081.28341  23073721.548    96033867.43041
 12  1  1 17 49 30.0000000  0 19G19G32R18G18R14G11G 1R19R 4R 2G 3R 3
                                G22R13G14R12G31G 6R17
  22351015.822    22351015.361   117455414.09841  22351018.262    91523719.56941
  24304430.326    24304428.810   127720656.49541  24304437.017    99522609.22441
  20655623.918    20655623.691   110261150.64441  20655633.332    85758701.07041
  24129446.304    24129447.939   126801188.65841  24129451.678    98806143.20541
  23181453.960    23181453.743   123570197.13141  23181463.539    96110177.88241
  23359852.580    23359853.576   122756882.59141  23359856.191    95654717.08541
  24385719.628    24385717.993   128147830.13441  24385727.129    99855459.35241
  21868937.719    21868936.104   116984091.98641  21868943.566    90987650.29641
  22154064.265    22154064.685   118634026.20341  22154070.794    92270940.85041
  22199086.274    22199085.191   118458667.01841  22199092.737    92134578.43741
  23280987.875    23280989.187   122342450.41941  23280996.787    95331772.04441
  20328170.041    20328170.199   108818334.08641  20328176.219    84636519.72141
  21037809.876    21037809.227   110554516.82241  21037811.577    86146378.79441
  21177517.700    21177516.897   113086802.47041  21177525.090    87956424.14641
  20098459.699    20098459.313   105618234.92341  20098463.146    82299956.09941
  22160482.744    22160481.963   118377360.66041  22160492.860    92071312.43341
  23233370.168    23233369.325   122092256.71241  23233374.406    95136818.13241
  23857913.720    23857912.457   125374202.55141  23857922.082    97694191.90141
  23097895.211    23097891.991   123601480.33641  23097904.782    96134510.90141
 12  1  1 17 50  0.0000000  0 19G19G32R18G18R14G11G 1R19R 4R 2G 3R 3
                                G22R13G14R12G31G 6R17
  22357812.493    22357812.477   117491134.07741  22357815.458    91551553.30741
  24289613.336    24289613.464   127642794.79341  24289619.536    99461937.88241
  20667698.973    20667698.989   110325611.31241  20667708.680    85808837.14941
  24144426.129    24144426.769   126879903.47041  24144433.043    98867479.40841
  23157333.848    23157333.274   123441632.21041  23157345.716    96010183.07341
  23344187.503    23344187.210   122674558.69041  23344190.871    95590568.60241
  24366219.058    24366219.253   128045360.82541  24366227.724    99775613.16541
  21859750.628    21859750.135   116934951.41341  21859757.259    90949429.83441
  22143254.038    22143252.324   118576124.58141  22143258.820    92225906.29941
  22210430.024    22210430.084   118519216.43341  22210440.029    92181672.40841
  23294588.204    23294589.050   122413921.58141  23294597.795    95387463.80241
  20328923.995    20328924.737   108822370.54441  20328930.743    84639659.18541
  21044665.790    21044665.029   110590545.34141  21044667.747    86174452.96341
  21164397.285    21164396.123   113016740.63941  21164404.074    87901931.66441
  20103214.514    20103214.052   105643218.89741  20103217.463    82319424.14041
  22168248.892    22168248.077   118418844.03841  22168258.080    92103577.26541
  23213658.671    23213659.317   121988682.98141  23213663.626    95056111.45241
  23875476.273    23875475.334   125466488.24541  23875482.539    97766102.67541
  23122083.758    23122081.197   123730917.75941  23122092.752    96235184.17641
 12  1  1 17 50 30.0000000  0 19G19G32R18G18R14G11G 1R19R 4R 2G 3R 3
                                G22R13G14R12G31G 6R17
  22364707.856    22364706.064   117527359.82241  22364709.182    91579781.14941
  24274799.192    24274797.828   127564936.48341  24274802.983    99401269.03441
  20679901.528    20679900.879   110390743.30441  20679909.937    85859495.34341
  24159415.297    24159415.221   126958671.21541  24159418.857    98928856.82041
  23133216.817    23133218.684   123313089.73541  23133229.828    95910205.68141
  23328573.845    23328573.676   122592510.62441  23328578.861    95526635.06141
  24346737.383    24346738.049   127942983.25941  24346745.899    99695838.45941
  21850701.576    21850700.470   116886543.87741  21850706.961    90911779.55241
  22132452.884    22132453.055   118518302.21141  22132460.748    92180933.39941
  22221788.862    22221787.260   118579818.74541  22221795.745    92228807.48941
  23308217.961    23308215.944   122485529.84941  23308224.363    95443262.34041
  20329705.633    20329705.583   108826553.43341  20329712.332    84642912.55041
  21051559.353    21051558.891   110626772.03541  21051561.509    86202681.54641
  21151393.386    21151392.317   112947297.39141  21151400.852    87847920.27541
  20108056.794    20108056.415   105668667.75641  20108060.292    82339254.43341
  22176152.528    22176152.424   118461071.97341  22176163.201    92136421.19841
  23193973.369    23193973.487   121885228.78041  23193977.042    94975497.85341
  23893041.311    23893041.134   125558797.26341  23893048.131    97838031.62641
  23146275.020    23146276.130   123860389.43741  23146286.676    96335884.01941
 12  1  1 17 51  0.0000000  0 19G19G32R18G18R14G11G 1R19R 4R 2G 3R 3
                                G22R13G14R12G31G 6R17
  22371697.164    22371694.878   117564088.48141  22371698.107    91608400.86741
  24259982.250    24259982.249   127487081.31241  24259989.054    99340602.68641
  20692227.503    20692227.171   110456543.04341  20692236.671    85910672.91141
  24174414.888    24174416.282   127037491.18941  24174421.019    98990274.93241
  23109109.198    23109109.105   123184573.73941  23109119.877    95810248.95441
  23313014.357    23313013.711   122510740.09541  23313017.397    95462917.79041
  24327274.712    24327273.916   127840699.50641  24327281.383    99616136.87241
  21841787.650    21841788.240   116838871.15841  21841795.786    90874700.77841
  22121671.399    22121670.199   118460558.45641  22121678.205    92136021.64041
  22233155.778    22233155.054   118640473.69241  22233163.755    92275983.53941
  23321869.536    23321869.865   122557272.22341  23321876.563    95499165.42341
  20330513.973    20330514.172   108830882.25941  20330520.984    84646279.41341
  21058491.459    21058490.412   110663196.77741  21058492.557    86231064.46141
  21138504.782    21138504.140   112878476.32341  21138513.000    87794392.82141
  20112988.122    20112987.499   105694579.49341  20112991.090    82359445.40741
  22184198.395    22184197.251   118504042.56241  22184207.328    92169842.77941
  23174308.212    23174309.584   121781897.06741  23174313.045    94894979.69841
  23910611.711    23910609.792   125651126.37741  23910618.240    97909976.23641
  23170476.374    23170476.867   123989891.40441  23170487.800    96436607.52441
 12  1  1 17 51 30.0000000  0 19G19G32R18G18R14G11G 1R19R 4R 2G 3R 3
                                G22R13G14R12G31G 6R17
  22378781.413    22378779.904   117601318.12341  22378782.799    91637410.96741
  24245166.777    24245165.932   127409229.68141  24245172.257    99279939.10341
  20704679.439    20704678.860   110523006.26841  20704687.805    85962366.51141
  24189423.816    24189422.875   127116363.81541  24189429.714    99051734.10741
  23085007.425    23085005.076   123056088.39141  23085016.248    95710316.06841
  23297506.960    23297506.737   122429249.97541  23297510.494    95399419.01541
  24307829.496    24307828.134   127738512.08141  24307835.847    99536510.33841
  21833015.424    21833014.597   116791935.70041  21833021.367    90838195.41941
  22110901.671    22110902.052   118402893.23941  22110908.889    92091170.93741
  22244531.955    22244530.855   118701181.86341  22244539.933    92323200.94241
  23335543.497    23335543.121   122629145.71641  23335557.770    95555170.68641
  20331350.238    20331350.268   108835356.97941  20331356.672    84649759.74741
  21065460.216    21065459.281   110699819.64041  21065461.381    86259601.75741
  21125734.364    21125733.444   112810281.45841  21125741.508    87741352.40841
  20118006.645    20118006.016   105720952.50041  20118009.707    82379995.80941
  22192381.577    22192380.096   118547754.26841  22192390.292    92203840.76141
  23154670.340    23154670.095   121678691.01541  23154673.907    94814559.44041
  23928183.065    23928181.386   125743472.99141  23928190.341    97981934.38641
  23194682.984    23194682.973   124119419.43141  23194693.449    96537351.20941
 12  1  1 17 52  0.0000000  0 19G19G32R18G18R14G11G 1R19R 4R 2G 3R 3
                                G22R13G14R12G31G 6R17
  22385959.684    22385958.722   117639046.42841  22385962.357    91666809.64141
  24230354.038    24230353.259   127331381.42241  24230359.014    99219278.14941
  20717253.169    20717252.162   110590130.05941  20717261.753    86014573.88641
  24204442.728    24204442.441   127195289.03141  24204448.490    99113234.23941
  23060906.828    23060906.154   122927638.44941  23060920.223    95610410.69741
  23282052.626    23282053.214   122348042.27241  23282057.492    95336140.30641
  24288401.796    24288400.404   127636423.15241  24288408.569    99456960.53241
  21824379.224    21824379.235   116745738.99741  21824387.108    90802264.67741
  22100147.545    22100147.822   118345305.63241  22100155.173    92046380.64741
  22255918.874    22255918.199   118761943.40441  22255926.887    92370459.87841
  23349251.858    23349247.876   122701147.40241  23349250.734    95611275.91141
  20332213.338    20332213.669   108839977.44341  20332220.005    84653353.43541
  21072466.911    21072466.167   110736640.69341  21072468.852    86288293.48141
  21113081.320    21113080.809   112742716.43741  21113088.770    87688801.87541
  20123112.957    20123112.095   105747784.56841  20123115.472    82400903.91741
  22200700.575    22200700.350   118592205.52641  22200711.581    92238413.94741
  23135055.365    23135055.230   121575613.50341  23135060.166    94734239.36641
  23945760.498    23945759.506   125835833.83241  23945767.870    98053903.62241
  23218894.265    23218892.907   124248969.27941  23218902.811    96638111.89541
 12  1  1 17 52 30.0000000  0 19G19G32R18G18R14G11G 1R19R 4R 2G 3R 3
                                G22R13G14R12G31G 6R17
  22393234.965    22393233.704   117677271.56741  22393236.746    91696595.43741
  24215539.766    24215539.074   127253536.87441  24215546.535    99158620.11541
  20729951.549    20729950.357   110657910.46741  20729959.494    86067291.97641
  24219472.129    24219471.187   127274266.76641  24219476.424    99174775.26541
  23036820.856    23036818.183   122799229.35641  23036830.923    95510537.05241
  23266655.605    23266653.970   122267119.24741  23266657.720    95273083.42541
  24268993.127    24268993.465   127534435.08341  24269001.338    99377489.30741
  21815881.011    21815880.885   116700282.91141  21815888.066    90766909.94741
  22089408.527    22089408.502   118287795.39941  22089415.474    92001650.50341
  22267315.344    22267315.028   118822758.23841  22267322.269    92417760.27841
  23362972.014    23362972.384   122773274.53041  23362978.147    95667478.70741
  20333103.669    20333103.472   108844743.49441  20333110.044    84657060.36741
  21079511.591    21079510.738   110773660.07841  21079513.271    86317139.74841
  21100547.562    21100546.657   112675785.14641  21100554.499    87636744.25441
  20128305.733    20128305.041   105775074.14041  20128308.744    82422168.52841
  22209161.016    22209160.323   118637394.68041  22209170.956    92273561.05041
  23115464.745    23115464.847   121472667.56941  23115469.224    94654021.82441
  23963337.904    23963338.729   125928206.04441  23963346.114    98125881.79641
  23243106.293    23243105.923   124378537.18141  23243115.868    96738886.71341
 12  1  1 17 53  0.0000000  0 19G19G32R18G18R14G11G 1R19R 4R 2G 3R 3
                                G22R13G14R12G31G 6R17
  22400601.960    22400601.582   117715991.25841  22400604.677    91726766.61941
  24200728.302    24200727.648   127175696.20341  24200733.369    99097965.06541
  20742772.154    20742770.856   110726343.22541  20742778.727    86120517.43641
  24234511.571    24234511.425   127353296.78841  24234516.322    99236357.03641
  23012739.061    23012737.078   122670864.16341  23012749.285    95410697.61141
  23251309.732    23251308.977   122186483.23641  23251313.595    95210250.18941
  24249605.211    24249605.073   127432550.29141  24249613.109    99298098.52541
  21807523.518    21807522.641   116655569.29241  21807529.020    90732132.70541
  22078683.946    22078683.637   118230362.21541  22078689.309    91956980.30441
  22278721.701    22278721.526   118883627.03841  22278730.841    92465102.65341
  23376723.600    23376721.148   122845524.22541  23376730.785    95723777.07641
  20334021.749    20334021.486   108849654.87241  20334027.767    84660880.32141
  21086594.030    21086592.745   110810877.62141  21086594.928    86346140.42441
  21088132.863    21088131.442   112609491.24541  21088140.065    87585182.35441
  20133585.036    20133584.881   105802819.58041  20133588.317    82443788.35341
  22217757.766    22217757.517   118683320.01641  22217768.298    92309280.77341
  23095900.249    23095900.077   121369856.25541  23095905.197    94573909.19341
  23980917.703    23980917.483   126020586.65041  23980924.225    98197866.48541
  23267320.411    23267320.712   124508118.69141  23267332.374    96839672.13941
 12  1  1 17 53 30.0000000  0 19G19G32R18G18R14G11G 1R19R 4R 2G 3R 3
                                G22R13G14R12G31G 6R17
  22408064.130    22408062.878   117755203.24641  22408066.032    91757321.40941
  24185915.756    24185915.212   127097859.22741  24185921.576    99037312.91841
  20755711.049    20755711.154   110795425.42441  20755720.737    86174248.03441
  24249560.668    24249558.962   127432379.26241  24249565.589    99297979.60041
  22988664.522    22988665.688   122542546.43841  22988679.326    95310895.09241
  23236021.326    23236020.037   122106136.45241  23236023.211    95147642.33241
  24230236.110    24230235.404   127330770.80041  24230246.116    99218789.88641
  21799303.483    21799302.739   116611599.82741  21799309.772    90697934.25141
  22067972.798    22067971.500   118173005.20641  22067978.795    91912369.35041
  22290138.165    22290138.341   118944549.77741  22290147.451    92512486.98341
  23390492.182    23390492.073   122917893.21641  23390499.525    95780168.40041
  20334966.312    20334966.052   108854711.30541  20334972.876    84664813.10441
  21093714.134    21093713.127   110848293.48241  21093715.523    86375295.63341
  21075837.522    21075836.878   112543838.55541  21075845.437    87534119.18341
  20138951.776    20138951.063   105831018.59141  20138954.531    82465761.61441
  22226493.669    22226493.176   118729979.25441  22226503.441    92345571.31141
  23076362.549    23076362.287   121267182.38541  23076365.752    94493903.65941
  23998498.291    23998498.490   126112972.27941  23998506.850    98269855.07941
  23291538.510    23291538.460   124637709.49441  23291549.305    96940464.77641
 12  1  1 17 54  0.0000000  0 19G19G32R18G18R14G11G 1R19R 4R 2G 3R 3
                                G22R13G14R12G31G 6R17
  22415619.513    22415618.372   117794905.43341  22415621.399    91788258.16841
  24171104.348    24171103.505   127020026.42641  24171110.163    98976664.02241
  20768773.850    20768773.490   110865152.98941  20768782.760    86228480.54941
  24264619.613    24264615.861   127511514.07441  24264624.039    99359643.03141
  22964600.694    22964603.140   122414282.81441  22964616.460    95211134.65741
  23220785.481    23220785.518   122026081.30041  23220790.542    95085261.73541
  24210891.123    24210889.664   127229099.28941  24210898.175    99139565.34341
  21791222.921    21791222.078   116568376.67841  21791228.751    90664316.26341
  22057276.505    22057275.404   118115724.40941  22057281.708    91867817.66141
  22301568.321    22301566.026   119005527.30941  22301574.125    92559913.91541
  23404286.717    23404284.607   122990379.29641  23404293.122    95836650.95341
  20335938.078    20335937.834   108859913.05041  20335943.960    84668858.89541
  21100872.389    21100871.143   110885908.03841  21100873.354    86404605.67341
  21063663.918    21063662.892   112478830.77741  21063671.683    87483557.60741
  20144402.898    20144402.770   105859669.58441  20144406.558    82488087.07241
  22235364.352    22235364.518   118777371.48941  22235374.913    92382431.94141
  23056850.692    23056850.390   121164649.50741  23056854.788    94414007.97541
  24016079.352    24016079.463   126205360.62441  24016085.983    98341845.81341
  23315756.788    23315757.366   124767306.04641  23315767.049    97041261.81141
 12  1  1 17 54 30.0000000  0 19G19G32R18G18R14G11G 1R19R 4R 2G 3R 3
                                G22R13G14R12G31G 6R17
  22423266.135    22423266.241   117835095.40241  22423269.297    91819575.00741
  24156294.206    24156292.927   126942197.72341  24156298.925    98916018.33641
  20781956.742    20781956.158   110935522.22841  20781966.038    86283212.17641
  24279687.631    24279688.412   127590701.09341  24279693.747    99421347.13041
  22940554.304    22940550.972   122286075.65941  22940562.798    95111418.23341
  23205609.125    23205608.389   121946319.84041  23205612.726    95023109.98241
  24191565.078    24191564.206   127127537.98341  24191570.574    99060426.65341
  21783282.836    21783282.250   116525901.06741  21783289.246    90631279.68141
  22046591.389    22046592.507   118058519.23941  22046598.774    91823324.79941
  22313004.217    22313003.214   119066559.04641  22313011.443    92607383.00941
  23418101.518    23418100.876   123062979.15541  23418108.513    95893222.15441
  20336936.768    20336936.480   108865259.78941  20336942.834    84673017.47241
  21108067.802    21108066.513   110923720.86341  21108068.744    86434070.19941
  21051612.211    21051611.025   112414471.17341  21051619.460    87433500.15841
  20149940.928    20149940.642   105888770.67441  20149944.422    82510763.24541
  22244375.539    22244373.776   118825494.19941  22244384.256    92419860.67341
  23037367.354    23037366.694   121062259.98141  23037370.430    94334224.01941
  24033660.308    24033660.625   126297748.28141  24033666.201    98413835.97341
  23339974.772    23339975.184   124896904.03041  23339986.607    97142060.05341
 12  1  1 17 55  0.0000000  0 19G19G32R18G18R14G11G 1R19R 4R 2G 3R 3
                                G22R13G14R12G31G 6R17
  22431007.376    22431006.528   117875770.96041  22431009.259    91851270.23641
  24141484.852    24141484.516   126864373.26841  24141490.052    98855375.94041
  20795260.385    20795258.836   111006529.39641  20795267.196    86338439.94241
  24294764.636    24294765.698   127669940.12341  24294769.988    99483091.77341
  22916517.047    22916513.970   122157929.90141  22916523.618    95011749.45641
  23190486.984    23190486.596   121866854.30241  23190489.464    94961188.81841
  24172257.841    24172258.427   127026089.25841  24172265.159    98981375.68641
  21775482.930    21775482.397   116484175.02041  21775488.154    90598826.11241
  22035923.099    22035924.130   118001389.27241  22035931.091    91778890.42741
  22324450.806    22324449.913   119127645.93941  22324459.800    92654894.99241
  23431937.437    23431939.329   123135689.63741  23431945.116    95949879.61341
  20337961.889    20337962.377   108870751.34041  20337969.221    84677288.67541
  21115300.476    21115299.852   110961732.22041  21115302.114    86463689.44541
  21039680.599    21039680.203   112350763.87741  21039688.763    87383950.05741
  20155563.997    20155563.724   105918319.97341  20155567.477    82533788.67441
  22253518.689    22253518.298   118874345.75541  22253529.300    92457856.34841
  23017911.182    23017910.609   120960017.27141  23017914.459    94254554.44141
  24051241.119    24051240.904   126390132.47341  24051247.424    98485823.45841
  23364193.053    23364193.979   125026499.36941  23364204.105    97242856.20341
 12  1  1 17 55 30.0000000  0 18G19G32R18G18G11G 1R19R 4R 2G 3R 3G22
                                R13G14R12G31G 6R17
  22438840.010    22438839.079   117916930.32441  22438842.532    91883342.45841
  24126676.858    24126676.418   126786553.45941  24126680.995    98794737.16241
  20808679.960    20808679.327   111078170.38141  20808689.135    86394160.67841
  24309853.998    24309854.499   127749231.48941  24309859.826    99544877.17541
  23175422.290    23175421.504   121787687.27741  23175424.526    94899500.25441
  24152975.286    24152975.001   126924755.51041  24152983.601    98902414.38041
  21767822.415    21767822.052   116443200.05941  21767828.263    90566956.72441
  22025271.225    22025269.837   117944334.47141  22025274.993    91734514.50341
  22335908.804    22335908.366   119188788.38141  22335917.888    92702450.18041
  23445798.459    23445794.437   123208507.98241  23445801.746    96006621.02041
  20339015.358    20339015.129   108876387.86441  20339021.773    84681672.64341
  21122572.006    21122571.019   110999942.22741  21122573.148    86493463.47741
  21027873.394    21027872.592   112287712.46541  21027880.843    87334910.09041
  20161272.256    20161271.797   105948315.72341  20161275.309    82557161.99141
  22262799.409    22262799.411   118923924.37241  22262809.699    92496417.44141
  22998482.267    22998482.876   120857924.71841  22998486.722    94175001.87641
  24068821.018    24068820.467   126482510.37341  24068826.785    98557806.06041
  23388411.492    23388411.220   125156088.28741  23388421.986    97343647.40141
 12  1  1 17 56  0.0000000  0 18G19G32R18G18G11G 1R19R 4R 2G 3R 3G22
                                R13G14R12G31G 6R17
  22446763.631    22446762.477   117958570.46341  22446765.982    91915789.30641
  24111868.512    24111867.744   126708738.12641  24111874.143    98734101.90541
  20822218.102    20822217.692   111150441.59841  20822227.259    86450371.61141
  24324952.611    24324952.780   127828575.04041  24324957.520    99606703.20041
  23160412.958    23160412.630   121708820.75441  23160416.883    94838045.85141
  24133716.444    24133714.794   126823539.00741  24133721.886    98823544.40841
  21760304.277    21760302.932   116402977.69041  21760310.924    90535672.68441
  22014628.285    22014628.040   117887353.79741  22014634.965    91690196.25841
  22347377.506    22347376.603   119249985.95741  22347386.498    92750048.26741
  23459673.607    23459672.187   123281431.18641  23459677.799    96063444.26041
  20340094.361    20340094.925   108882168.94041  20340101.611    84686169.03441
  21129881.173    21129879.916   111038350.90841  21129881.971    86523392.31341
  21016189.276    21016188.862   112225320.58641  21016196.927    87286383.10741
  20167064.790    20167064.215   105978755.78941  20167067.652    82580881.52441
  22272216.639    22272216.579   118974227.96341  22272228.076    92535542.42841
  22979084.343    22979084.315   120755984.85641  22979088.739    94095568.30041
  24086398.999    24086397.458   126574878.80941  24086404.002    98629781.25541
  23412625.711    23412626.209   125285666.32241  23412636.613    97444430.16641
 12  1  1 17 56 30.0000000  0 18G19G32R18G18G11G 1R19R 4R 2G 3R 3G22
                                R13G14R12G31G 6R17
  22454779.272    22454777.609   118000689.06741  22454780.457    91948608.99041
  24097061.570    24097061.375   126630927.47641  24097066.175    98673470.31841
  20835875.607    20835874.258   111223338.75841  20835882.858    86507069.37841
  24340063.300    24340062.587   127907970.39441  24340066.326    99668569.63441
  23145464.648    23145464.011   121630257.00441  23145466.233    94776827.38941
  24114478.817    24114475.206   126722442.13941  24114483.389    98744767.57941
  21752924.075    21752924.365   116363509.29241  21752932.617    90504975.05741
  22004001.506    22004001.127   117830447.16941  22004008.090    91645935.59341
  22358857.476    22358856.598   119311239.50141  22358863.182    92797689.88941
  23473570.304    23473565.010   123354456.13141  23473576.503    96120346.64541
  20341201.252    20341201.697   108888094.64741  20341208.495    84690777.92141
  21137227.513    21137226.603   111076958.36041  21137228.745    86553476.03241
  21004629.800    21004628.891   112163591.37841  21004637.586    87238371.52841
  20172941.558    20172940.881   106009638.23641  20172944.729    82604945.77141
  22281768.074    22281768.821   119025254.51541  22281779.093    92575229.75741
  22959715.068    22959715.137   120654200.83241  22959719.230    94016256.12841
  24103972.431    24103971.029   126667235.09941  24103979.438    98701746.97741
  23436838.582    23436838.661   125415229.48041  23436849.067    97545201.38441
 12  1  1 17 57  0.0000000  0 18G19G32R18G18G11G 1R19R 4R 2G 3R 3G22
                                R13G14R12G31G 6R17
  22462884.072    22462882.844   118043284.16541  22462886.674    91981799.95041
  24082255.077    24082254.328   126553121.75741  24082260.585    98612842.52641
  20849647.295    20849646.694   111296858.27141  20849657.023    86564251.21041
  24355179.537    24355179.221   127987417.53641  24355184.678    99730476.40141
  23130570.798    23130570.470   121551998.18641  23130574.330    94715846.52041
  24095262.852    24095261.339   126621467.20241  24095268.986    98666085.85241
  21745689.244    21745687.991   116324796.69441  21745694.904    90474865.28241
  21993388.086    21993389.011   117773614.00341  21993394.509    91601732.06441
  22370345.882    22370344.736   119372549.14641  22370354.248    92845375.12141
  23487486.165    23487483.434   123427580.36741  23487490.199    96177326.46841
  20342336.238    20342336.365   108894164.81841  20342342.445    84695499.14941
  21144612.119    21144611.323   111115764.56841  21144613.752    86583714.63241
  20993195.106    20993193.921   112102528.85141  20993201.130    87190878.44641
  20178902.469    20178901.662   106040961.13041  20178905.151    82629353.22141
  22291456.601    22291455.726   119077002.10441  22291466.415    92615477.86341
  22940377.379    22940376.877   120552575.73641  22940382.025    93937067.79941
  24121543.566    24121544.856   126759576.14241  24121550.822    98773700.80741
  23461046.388    23461046.147   125544773.81841  23461057.911    97645957.98841
 12  1  1 17 57 30.0000000  0 18G19G32R18G18G11G 1R19R 4R 2G 3R 3G22
                                R13G14R12G31G 6R17
  22471079.979    22471078.471   118086353.49541  22471082.476    92015360.44741
  24067450.444    24067449.563   126475321.16941  24067456.506    98552218.71941
  20863536.548    20863535.203   111370996.42841  20863545.349    86621914.19441
  24370309.023    24370308.239   128066916.81241  24370314.339    99792423.83941
  23115737.723    23115737.314   121474046.88541  23115741.846    94655105.29141
  24076068.386    24076069.974   126520616.82841  24076077.572    98587501.16541
  21738594.220    21738593.449   116286841.46541  21738599.441    90445344.58541
  21982789.077    21982789.472   117716854.42841  21982795.455    91557585.78441
  22381846.931    22381845.824   119433915.45241  22381853.832    92893104.44341
  23501416.178    23501416.577   123500801.17041  23501420.882    96234381.53841
  20343497.351    20343497.136   108900379.55841  20343503.713    84700332.84341
  21152034.065    21152033.472   111154769.57241  21152035.411    86614108.12941
  20981884.752    20981883.632   112042135.95441  20981892.848    87143906.21341
  20184946.320    20184945.629   106072722.94841  20184949.328    82654102.69741
  22301279.625    22301278.255   119129468.79741  22301287.347    92656285.27941
  22921067.867    22921069.206   120451112.67941  22921073.218    93858005.75141
  24139113.043    24139112.532   126851899.12141  24139119.550    98845640.62141
  23485251.866    23485250.881   125674295.68741  23485260.616    97746697.06841
 12  1  1 17 58  0.0000000  0 18G19G32R18G18G11G 1R19R 4R 2G 3R 3G22
                                R13G14R12G31G 6R17
  22479365.427    22479364.770   118129894.41441  22479368.139    92049288.43441
  24052647.698    24052646.209   126397525.90741  24052650.899    98491599.10241
  20877541.153    20877540.061   111445748.63241  20877548.177    86680054.77241
  24385447.733    24385446.882   128146468.19441  24385451.552    99854411.85841
  23100964.016    23100962.685   121396405.06641  23100966.277    94594605.20941
  24056902.233    24056903.199   126419893.34041  24056911.377    98509015.31941
  21731640.057    21731639.036   116249644.85941  21731645.162    90416413.91541
  21972204.677    21972204.028   117660167.69041  21972209.796    91513496.11841
  22393357.236    22393355.584   119495338.58141  22393364.954    92940877.95441
  23515368.033    23515367.099   123574115.76641  23515377.585    96291509.73741
  20344685.238    20344685.444   108906738.89441  20344691.217    84705278.99241
  21159495.083    21159494.050   111193973.50241  21159496.621    86644656.63341
  20970701.536    20970700.457   111982416.66241  20970708.501    87097457.89941
  20191073.562    20191072.982   106104921.44441  20191076.672    82679192.43441
  22311233.778    22311232.843   119182652.28141  22311245.569    92697650.20041
  22901792.381    22901792.358   120349814.69141  22901796.656    93779072.33041
  24156678.120    24156678.492   126944201.29041  24156687.411    98917564.12441
  23509449.670    23509450.156   125803790.66941  23509458.886    97847415.25141
 12  1  1 17 58 30.0000000  0 18G19G32R18G18G11G 1R19R 4R 2G 3R 3G22
                                R13G14R12G31G 6R17
  22487741.082    22487739.392   118173904.57441  22487742.613    92083582.05241
  24037842.160    24037841.497   126319736.06741  24037849.798    98430983.71841
  20891657.086    20891656.187   111521111.05641  20891666.381    86738669.98341
  24400595.185    24400593.415   128226071.11241  24400600.257    99916440.02641
  23086247.718    23086247.507   121319075.22341  23086251.291    94534348.23041
  24037760.375    24037760.655   126319299.08941  24037769.253    98430630.22041
  21724828.354    21724827.198   116213208.24041  21724833.899    90388074.35141
  21961631.200    21961631.058   117603553.55541  21961637.016    91469462.94841
  22404878.427    22404877.518   119556818.92041  22404886.534    92988695.97441
  23529338.290    23529338.578   123647520.57241  23529344.412    96348708.17941
  20345899.720    20345899.644   108913242.56741  20345906.777    84710337.41941
  21166993.203    21166992.036   111233376.77941  21166994.560    86675360.48641
  20959644.853    20959643.902   111923374.11041  20959652.180    87051535.92141
  20197282.900    20197282.543   106137554.60141  20197286.200    82704620.86841
  22321325.585    22321324.680   119236550.62641  22321332.908    92739571.09541
  22882548.788    22882548.261   120248685.15741  22882552.080    93700270.16241
  24174238.014    24174237.373   127036479.54241  24174245.881    98989469.01841
  23533643.783    23533644.466   125933254.80141  23533655.023    97948109.42641
 12  1  1 17 59  0.0000000  0 18G19G32R18G18G11G 1R19R 4R 2G 3R 3G22
                                R13G14R12G31G 6R17
  22496203.396    22496202.883   118218381.68841  22496207.073    92118239.52041
  24023041.549    24023040.397   126241951.95941  24023046.455    98370372.76341
  20905889.708    20905888.595   111597079.64541  20905898.052    86797756.63441
  24415752.457    24415752.907   128305725.85441  24415758.633    99978508.62141
  23071590.959    23071591.153   121242059.54941  23071594.764    94474336.04741
  24018644.115    24018643.344   126218836.59841  24018651.267    98352347.77741
  21718157.433    21718157.452   116177533.15041  21718165.148    90360327.08741
  21951071.532    21951072.007   117547011.70741  21951078.339    91425486.00841
  22416411.833    22416410.382   119618356.90341  22416419.469    93036558.78741
  23543323.866    23543320.866   123721012.84641  23543327.957    96405974.84241
  20347142.714    20347142.053   108919890.86041  20347148.676    84715508.30141
  21174529.324    21174528.285   111272979.38941  21174530.716    86706219.65441
  20948714.761    20948714.058   111865011.81241  20948723.441    87006143.02841
  20203575.308    20203574.927   106170620.77941  20203578.618    82730386.72541
  22331549.236    22331548.326   119291161.69141  22331558.874    92782046.37441
  22863336.894    22863336.304   120147726.46941  22863340.089    93621601.11141
  24191790.960    24191790.309   127128731.07341  24191800.428    99061353.08141
  23557832.109    23557832.466   126062684.44741  23557841.723    98048776.79741
 12  1  1 17 59 30.0000000  0 18G19G32R18G18R14G11G 1R19R 4R 2G 3R 3
                                G22R13G14R12G31G 6
  22504756.393    22504755.613   118263323.58341  22504758.589    92153259.16441
  24008240.508    24008240.751   126164173.71741  24008245.826    98309766.33641
  20920233.608    20920233.335   111673651.13641  20920242.399    86857312.21441
  24430921.851    24430919.686   128385432.84941  24430924.904   100040617.84841
  22700810.763    22700808.872   121008101.64441  22700820.893    94117437.97541
  23056997.167    23056996.177   121165360.13941  23056999.569    94414570.31841
  23999550.425    23999550.701   126118508.23341  23999559.542    98274169.85441
  21711632.373    21711631.290   116142620.70541  21711638.536    90333172.99241
  21940526.484    21940526.445   117490541.85741  21940533.597    91381565.05241
  22427953.106    22427953.130   119679952.84041  22427960.759    93084466.71341
  23557321.505    23557321.864   123794590.07141  23557327.823    96463307.56041
  20348410.845    20348410.471   108926683.62041  20348417.756    84720791.56541
  21182102.720    21182101.928   111312781.15341  21182104.438    86737234.01041
  20937914.381    20937913.660   111807333.54141  20937922.067    86961282.18641
  20209949.608    20209949.011   106204117.87941  20209953.076    82756488.36141
  22341903.727    22341903.245   119346483.31241  22341913.449    92825074.28041
  22844158.353    22844158.718   120046942.43241  22844161.928    93543068.13741
  24209342.086    24209339.741   127220953.19741  24209348.743    99133214.23341
